[
  {
    "id": 8374,
    "name": "JR三山木",
    "nameEn": "JR Miyamaki",
    "lat": 34.7981288,
    "lng": 135.7846615,
    "prefecture": "京都府",
    "lines": [
      "JR/私鉄"
    ],
    "operator": ""
  },
  {
    "id": 6987,
    "name": "JR五位堂",
    "nameEn": "JR Goidō",
    "lat": 34.5277508,
    "lng": 135.7183935,
    "prefecture": "関西地方",
    "lines": [
      "JR/私鉄"
    ],
    "operator": ""
  },
  {
    "id": 5885,
    "name": "JR小倉",
    "nameEn": "JR-Ogura",
    "lat": 34.8891475,
    "lng": 135.786292,
    "prefecture": "京都府",
    "lines": [
      "JR西日本"
    ],
    "operator": "西日本旅客鉄道"
  },
  {
    "id": 4910,
    "name": "JR総持寺",
    "nameEn": "JR-Sojiji",
    "lat": 34.8284148,
    "lng": 135.5774843,
    "prefecture": "京都府",
    "lines": [
      "JR/私鉄"
    ],
    "operator": ""
  },
  {
    "id": 5294,
    "name": "Ｊヴィレッジ",
    "nameEn": "J-village",
    "lat": 37.2419456,
    "lng": 141.0075299,
    "prefecture": "関東地方",
    "lines": [
      "JR東日本",
      "JR常磐線"
    ],
    "operator": "東日本旅客鉄道"
  },
  {
    "id": 2768,
    "name": "SL 東京駅",
    "nameEn": "",
    "lat": 35.3486777,
    "lng": 136.9882887,
    "prefecture": "愛知県",
    "lines": [
      "JR/私鉄"
    ],
    "operator": ""
  },
  {
    "id": 2767,
    "name": "SL名古屋駅",
    "nameEn": "",
    "lat": 35.3436624,
    "lng": 136.9897989,
    "prefecture": "愛知県",
    "lines": [
      "JR/私鉄"
    ],
    "operator": ""
  },
  {
    "id": 6691,
    "name": "YRP野比",
    "nameEn": "YRP Nobi",
    "lat": 35.2121005,
    "lng": 139.6849914,
    "prefecture": "神奈川県",
    "lines": [
      "京浜急行電鉄"
    ],
    "operator": "京浜急行電鉄"
  },
  {
    "id": 4456,
    "name": "アイランドセンター",
    "nameEn": "Island Center",
    "lat": 34.6892331,
    "lng": 135.2693072,
    "prefecture": "兵庫県",
    "lines": [
      "神戸新交通"
    ],
    "operator": "神戸新交通"
  },
  {
    "id": 4454,
    "name": "アイランド北口",
    "nameEn": "Island Kitaguchi",
    "lat": 34.6931885,
    "lng": 135.2687071,
    "prefecture": "兵庫県",
    "lines": [
      "神戸新交通"
    ],
    "operator": "神戸新交通"
  },
  {
    "id": 1099,
    "name": "あかおか",
    "nameEn": "Akaoka",
    "lat": 33.5398659,
    "lng": 133.7221029,
    "prefecture": "中国・四国地方",
    "lines": [
      "JR/私鉄"
    ],
    "operator": ""
  },
  {
    "id": 5250,
    "name": "あかぢ",
    "nameEn": "Akaji",
    "lat": 33.7273897,
    "lng": 130.724536,
    "prefecture": "福岡県",
    "lines": [
      "平成筑豊鉄道",
      "平成筑豊鉄道伊田線"
    ],
    "operator": "平成筑豊鉄道"
  },
  {
    "id": 8040,
    "name": "あき総合病院前",
    "nameEn": "Aki General Hospital",
    "lat": 33.5043533,
    "lng": 133.8976596,
    "prefecture": "中国・四国地方",
    "lines": [
      "JR/私鉄"
    ],
    "operator": ""
  },
  {
    "id": 1480,
    "name": "あさぎり",
    "nameEn": "Asagiri",
    "lat": 32.2363192,
    "lng": 130.8939365,
    "prefecture": "九州地方",
    "lines": [
      "くま川鉄道",
      "くま川鉄道湯前線"
    ],
    "operator": "くま川鉄道"
  },
  {
    "id": 4551,
    "name": "あしかがフラワーパーク",
    "nameEn": "Ashikaga Flower Park",
    "lat": 36.3151578,
    "lng": 139.5183925,
    "prefecture": "関東地方",
    "lines": [
      "JR/私鉄"
    ],
    "operator": ""
  },
  {
    "id": 4159,
    "name": "あすなろう四日市",
    "nameEn": "Asunarou Yokkaichi",
    "lat": 34.9657512,
    "lng": 136.618275,
    "prefecture": "愛知県",
    "lines": [
      "四日市あすなろう鉄道",
      "内部線;八王子線"
    ],
    "operator": "四日市あすなろう鉄道"
  },
  {
    "id": 2533,
    "name": "アスモ前",
    "nameEn": "Asumomae",
    "lat": 34.727957,
    "lng": 137.4943072,
    "prefecture": "愛知県",
    "lines": [
      "JR/私鉄"
    ],
    "operator": ""
  },
  {
    "id": 4612,
    "name": "あつみ温泉",
    "nameEn": "Atsumi Onsen",
    "lat": 38.6243926,
    "lng": 139.58794,
    "prefecture": "関東地方",
    "lines": [
      "JR東日本",
      "JR羽越線"
    ],
    "operator": "東日本旅客鉄道"
  },
  {
    "id": 135,
    "name": "あぶくま",
    "nameEn": "Abukuma",
    "lat": 37.913718,
    "lng": 140.686133,
    "prefecture": "宮城県",
    "lines": [
      "阿武隈急行線",
      "阿武隈急行"
    ],
    "operator": "阿武隈急行線"
  },
  {
    "id": 8409,
    "name": "アプトいちしろ",
    "nameEn": "Abt Ichishiro",
    "lat": 35.1673085,
    "lng": 138.1448136,
    "prefecture": "中部地方",
    "lines": [
      "JR/私鉄"
    ],
    "operator": ""
  },
  {
    "id": 2470,
    "name": "あわくら温泉",
    "nameEn": "Awakura Onsen",
    "lat": 35.1886564,
    "lng": 134.3368749,
    "prefecture": "兵庫県",
    "lines": [
      "智頭急行",
      "智頭急行智頭線"
    ],
    "operator": "智頭急行"
  },
  {
    "id": 778,
    "name": "あわら湯のまち",
    "nameEn": "Awara-Yunomachi",
    "lat": 36.22306,
    "lng": 136.1936755,
    "prefecture": "関東地方",
    "lines": [
      "JR/私鉄"
    ],
    "operator": ""
  },
  {
    "id": 2562,
    "name": "いこいの広場",
    "nameEn": "Ikoinohiroba",
    "lat": 34.7881142,
    "lng": 137.9637041,
    "prefecture": "関西地方",
    "lines": [
      "JR/私鉄"
    ],
    "operator": ""
  },
  {
    "id": 1386,
    "name": "いこいの村",
    "nameEn": "Ikoi no mura",
    "lat": 32.936673,
    "lng": 131.094941,
    "prefecture": "九州地方",
    "lines": [
      "JR九州",
      "JR豊肥本線"
    ],
    "operator": "九州旅客鉄道"
  },
  {
    "id": 2413,
    "name": "いずえ",
    "nameEn": "Izue",
    "lat": 34.5879894,
    "lng": 133.4508623,
    "prefecture": "関西地方",
    "lines": [
      "JR/私鉄"
    ],
    "operator": ""
  },
  {
    "id": 2835,
    "name": "いずみ中央",
    "nameEn": "Izumi-Chuo",
    "lat": 35.4152489,
    "lng": 139.4872874,
    "prefecture": "神奈川県",
    "lines": [
      "JR/私鉄"
    ],
    "operator": ""
  },
  {
    "id": 2836,
    "name": "いずみ野",
    "nameEn": "Izumino",
    "lat": 35.429465,
    "lng": 139.4949527,
    "prefecture": "神奈川県",
    "lines": [
      "JR/私鉄"
    ],
    "operator": ""
  },
  {
    "id": 2178,
    "name": "いのつき",
    "nameEn": "Inoysuki",
    "lat": 33.2826893,
    "lng": 129.6675474,
    "prefecture": "中国・四国地方",
    "lines": [
      "JR/私鉄"
    ],
    "operator": ""
  },
  {
    "id": 3605,
    "name": "いよ立花",
    "nameEn": "Iyo-Tachibana",
    "lat": 33.8275199,
    "lng": 132.7734245,
    "prefecture": "中国・四国地方",
    "lines": [
      "伊予鉄道"
    ],
    "operator": "伊予鉄道"
  },
  {
    "id": 6755,
    "name": "いわき",
    "nameEn": "Iwaki",
    "lat": 37.0582102,
    "lng": 140.8921829,
    "prefecture": "関東地方",
    "lines": [
      "JR東日本"
    ],
    "operator": "東日本旅客鉄道"
  },
  {
    "id": 1412,
    "name": "うきは",
    "nameEn": "Ukiha",
    "lat": 33.3350365,
    "lng": 130.7887277,
    "prefecture": "福岡県",
    "lines": [
      "JR九州",
      "JR久大線"
    ],
    "operator": "九州旅客鉄道"
  },
  {
    "id": 4375,
    "name": "うちよけ",
    "nameEn": "",
    "lat": 33.8991134,
    "lng": 133.3082159,
    "prefecture": "中国・四国地方",
    "lines": [
      "JR/私鉄"
    ],
    "operator": ""
  },
  {
    "id": 2728,
    "name": "ウッディタウン中央",
    "nameEn": "Woody Town Chūō",
    "lat": 34.909716,
    "lng": 135.1836684,
    "prefecture": "兵庫県",
    "lines": [
      "神戸電鉄"
    ],
    "operator": "神戸電鉄"
  },
  {
    "id": 1328,
    "name": "えびの",
    "nameEn": "Ebino",
    "lat": 32.0422993,
    "lng": 130.8159272,
    "prefecture": "九州地方",
    "lines": [
      "JR九州"
    ],
    "operator": "九州旅客鉄道"
  },
  {
    "id": 1330,
    "name": "えびの上江",
    "nameEn": "Ebino Uwae",
    "lat": 32.0356098,
    "lng": 130.8500084,
    "prefecture": "九州地方",
    "lines": [
      "JR九州"
    ],
    "operator": "九州旅客鉄道"
  },
  {
    "id": 1329,
    "name": "えびの飯野",
    "nameEn": "Ebino Iino",
    "lat": 32.0304524,
    "lng": 130.8706681,
    "prefecture": "九州地方",
    "lines": [
      "JR九州"
    ],
    "operator": "九州旅客鉄道"
  },
  {
    "id": 4794,
    "name": "エントランス広場",
    "nameEn": "",
    "lat": 35.259505,
    "lng": 139.1280266,
    "prefecture": "神奈川県",
    "lines": [
      "JR/私鉄"
    ],
    "operator": ""
  },
  {
    "id": 1484,
    "name": "おかどめ幸福",
    "nameEn": "Okadome-Kōfuku",
    "lat": 32.231476,
    "lng": 130.8751642,
    "prefecture": "九州地方",
    "lines": [
      "くま川鉄道",
      "くま川鉄道湯前線"
    ],
    "operator": "くま川鉄道"
  },
  {
    "id": 7531,
    "name": "おもちゃのまち",
    "nameEn": "Omocha-no-Machi",
    "lat": 36.4662182,
    "lng": 139.8293442,
    "prefecture": "関東地方",
    "lines": [
      "JR/私鉄"
    ],
    "operator": ""
  },
  {
    "id": 5369,
    "name": "おもろまち",
    "nameEn": "Omoromachi",
    "lat": 26.2227746,
    "lng": 127.6984101,
    "prefecture": "不明",
    "lines": [
      "JR/私鉄"
    ],
    "operator": ""
  },
  {
    "id": 7453,
    "name": "オレンジタウン",
    "nameEn": "Orange Town",
    "lat": 34.3022672,
    "lng": 134.1809191,
    "prefecture": "関西地方",
    "lines": [
      "JR四国"
    ],
    "operator": "四国旅客鉄道"
  },
  {
    "id": 2849,
    "name": "かしわ台",
    "nameEn": "Kashiwadai",
    "lat": 35.4667081,
    "lng": 139.4153179,
    "prefecture": "神奈川県",
    "lines": [
      "JR/私鉄"
    ],
    "operator": ""
  },
  {
    "id": 7805,
    "name": "かぶと山",
    "nameEn": "Kabutoyama",
    "lat": 35.6068023,
    "lng": 134.9197544,
    "prefecture": "兵庫県",
    "lines": [
      "JR/私鉄"
    ],
    "operator": ""
  },
  {
    "id": 7123,
    "name": "かるが浜",
    "nameEn": "Karugahama",
    "lat": 34.2641368,
    "lng": 132.5171401,
    "prefecture": "広島県",
    "lines": [
      "JR/私鉄"
    ],
    "operator": ""
  },
  {
    "id": 4344,
    "name": "ケーブル八幡宮口",
    "nameEn": "Cable-Hachimangu-guchi",
    "lat": 34.8844931,
    "lng": 135.6994705,
    "prefecture": "京都府",
    "lines": [
      "京阪電気鉄道",
      "石清水八幡宮参道ケーブル"
    ],
    "operator": "京阪電気鉄道"
  },
  {
    "id": 2420,
    "name": "ケーブル八幡宮山上",
    "nameEn": "Cable-hachimangu-sanjo Station",
    "lat": 34.881081,
    "lng": 135.6998088,
    "prefecture": "京都府",
    "lines": [
      "京阪電気鉄道",
      "石清水八幡宮参道ケーブル"
    ],
    "operator": "京阪電気鉄道"
  },
  {
    "id": 6299,
    "name": "ケーブル山上",
    "nameEn": "",
    "lat": 34.9238068,
    "lng": 135.4570525,
    "prefecture": "兵庫県",
    "lines": [
      "JR/私鉄"
    ],
    "operator": ""
  },
  {
    "id": 4064,
    "name": "けやき台",
    "nameEn": "Keyaki-dai",
    "lat": 33.4343882,
    "lng": 130.5333383,
    "prefecture": "福岡県",
    "lines": [
      "JR九州"
    ],
    "operator": "九州旅客鉄道"
  },
  {
    "id": 7262,
    "name": "こどもの国",
    "nameEn": "Kodomonokuni",
    "lat": 34.7888009,
    "lng": 137.1622574,
    "prefecture": "愛知県",
    "lines": [
      "JR/私鉄"
    ],
    "operator": ""
  },
  {
    "id": 7953,
    "name": "こどもの国",
    "nameEn": "Kodomonokuni",
    "lat": 35.558128,
    "lng": 139.4864894,
    "prefecture": "東京都",
    "lines": [
      "東急電鉄",
      "こどもの国線"
    ],
    "operator": "東急電鉄"
  },
  {
    "id": 4924,
    "name": "こども汽車乗り場",
    "nameEn": "",
    "lat": 34.7892725,
    "lng": 137.1555804,
    "prefecture": "愛知県",
    "lines": [
      "JR/私鉄"
    ],
    "operator": ""
  },
  {
    "id": 2851,
    "name": "さがみ野",
    "nameEn": "Sagamino",
    "lat": 35.4715574,
    "lng": 139.4285691,
    "prefecture": "神奈川県",
    "lines": [
      "JR/私鉄"
    ],
    "operator": ""
  },
  {
    "id": 5714,
    "name": "さぎの宮",
    "nameEn": "Saginomiya",
    "lat": 34.7575253,
    "lng": 137.7574892,
    "prefecture": "愛知県",
    "lines": [
      "JR/私鉄"
    ],
    "operator": ""
  },
  {
    "id": 4227,
    "name": "さつき野",
    "nameEn": "Satsukino",
    "lat": 37.8132978,
    "lng": 139.1172452,
    "prefecture": "関東地方",
    "lines": [
      "JR/私鉄"
    ],
    "operator": ""
  },
  {
    "id": 2810,
    "name": "サンドーム西",
    "nameEn": "Sundome Nishi",
    "lat": 35.9364062,
    "lng": 136.1805346,
    "prefecture": "中部地方",
    "lines": [
      "福井鉄道"
    ],
    "operator": "福井鉄道"
  },
  {
    "id": 4694,
    "name": "ししぶ",
    "nameEn": "Shishibu",
    "lat": 33.721739,
    "lng": 130.4583267,
    "prefecture": "福岡県",
    "lines": [
      "JR鹿児島本線"
    ],
    "operator": "JR鹿児島本線"
  },
  {
    "id": 6933,
    "name": "ジャトコ前",
    "nameEn": "Jatco-mae",
    "lat": 35.1577773,
    "lng": 138.690287,
    "prefecture": "中部地方",
    "lines": [
      "JR/私鉄"
    ],
    "operator": ""
  },
  {
    "id": 2151,
    "name": "すえたちばな",
    "nameEn": "Suetachibana",
    "lat": 33.31681,
    "lng": 129.6138311,
    "prefecture": "中国・四国地方",
    "lines": [
      "JR/私鉄"
    ],
    "operator": ""
  },
  {
    "id": 7795,
    "name": "スクリーン",
    "nameEn": "Screen",
    "lat": 35.2331749,
    "lng": 136.267278,
    "prefecture": "中部地方",
    "lines": [
      "近江鉄道",
      "近江鉄道多賀線"
    ],
    "operator": "近江鉄道"
  },
  {
    "id": 3651,
    "name": "すずかけ台",
    "nameEn": "Suzukakedai",
    "lat": 35.5169105,
    "lng": 139.4814366,
    "prefecture": "東京都",
    "lines": [
      "JR/私鉄"
    ],
    "operator": ""
  },
  {
    "id": 921,
    "name": "すずらんの里",
    "nameEn": "Suzurannosato",
    "lat": 35.9303274,
    "lng": 138.211947,
    "prefecture": "中部地方",
    "lines": [
      "JR/私鉄"
    ],
    "operator": ""
  },
  {
    "id": 4399,
    "name": "スペースワールド",
    "nameEn": "Space World",
    "lat": 33.871264,
    "lng": 130.8063609,
    "prefecture": "福岡県",
    "lines": [
      "JR九州"
    ],
    "operator": "九州旅客鉄道"
  },
  {
    "id": 2655,
    "name": "せきてらす前",
    "nameEn": "Sekiterasu-mae",
    "lat": 35.4833334,
    "lng": 136.9142209,
    "prefecture": "愛知県",
    "lines": [
      "長良川鉄道",
      "長良川鉄道越美南線"
    ],
    "operator": "長良川鉄道"
  },
  {
    "id": 2801,
    "name": "たけふ新",
    "nameEn": "Takefu-shin",
    "lat": 35.9061222,
    "lng": 136.1702578,
    "prefecture": "中部地方",
    "lines": [
      "JR/私鉄"
    ],
    "operator": ""
  },
  {
    "id": 7921,
    "name": "たのうら御立岬公園",
    "nameEn": "Tanoura-otachimisakikoen",
    "lat": 32.363325,
    "lng": 130.5067086,
    "prefecture": "九州地方",
    "lines": [
      "肥薩おれんじ鉄道"
    ],
    "operator": "肥薩おれんじ鉄道"
  },
  {
    "id": 4912,
    "name": "たびら平戸口",
    "nameEn": "Tabirahiratoguchi",
    "lat": 33.3626788,
    "lng": 129.5827639,
    "prefecture": "中国・四国地方",
    "lines": [
      "JR/私鉄"
    ],
    "operator": ""
  },
  {
    "id": 3420,
    "name": "ダム上 山頂",
    "nameEn": "",
    "lat": 35.5405048,
    "lng": 139.2486323,
    "prefecture": "神奈川県",
    "lines": [
      "JR/私鉄"
    ],
    "operator": ""
  },
  {
    "id": 3421,
    "name": "ダム下 山麓",
    "nameEn": "",
    "lat": 35.5416373,
    "lng": 139.2500205,
    "prefecture": "神奈川県",
    "lines": [
      "JR/私鉄"
    ],
    "operator": ""
  },
  {
    "id": 1738,
    "name": "つきみ野",
    "nameEn": "Tsukimino",
    "lat": 35.5103897,
    "lng": 139.4582718,
    "prefecture": "東京都",
    "lines": [
      "東京急行電鉄"
    ],
    "operator": "東京急行電鉄"
  },
  {
    "id": 3652,
    "name": "つくし野",
    "nameEn": "Tsukushino",
    "lat": 35.5276368,
    "lng": 139.4851103,
    "prefecture": "東京都",
    "lines": [
      "東京急行電鉄"
    ],
    "operator": "東京急行電鉄"
  },
  {
    "id": 8208,
    "name": "テクノさかき",
    "nameEn": "",
    "lat": 36.44118,
    "lng": 138.1880991,
    "prefecture": "関東地方",
    "lines": [
      "JR/私鉄"
    ],
    "operator": ""
  },
  {
    "id": 5533,
    "name": "てだこ浦西",
    "nameEn": "Tedako-Uranishi",
    "lat": 26.2417482,
    "lng": 127.7419169,
    "prefecture": "不明",
    "lines": [
      "JR/私鉄"
    ],
    "operator": ""
  },
  {
    "id": 8299,
    "name": "てっぺんとりで",
    "nameEn": "",
    "lat": 33.7588938,
    "lng": 132.7971336,
    "prefecture": "中国・四国地方",
    "lines": [
      "JR/私鉄"
    ],
    "operator": ""
  },
  {
    "id": 6298,
    "name": "ときわ台",
    "nameEn": "Tokiwadai",
    "lat": 34.9060196,
    "lng": 135.4379619,
    "prefecture": "兵庫県",
    "lines": [
      "能勢電鉄",
      "能勢電鉄妙見線"
    ],
    "operator": "能勢電鉄"
  },
  {
    "id": 7159,
    "name": "ノーフォーク広場",
    "nameEn": "Norfork Hiroba",
    "lat": 33.9558059,
    "lng": 130.9643376,
    "prefecture": "福岡県",
    "lines": [
      "平成筑豊鉄道",
      "平成筑豊鉄道門司港レトロ観光線"
    ],
    "operator": "平成筑豊鉄道"
  },
  {
    "id": 1097,
    "name": "のいち",
    "nameEn": "Noichi",
    "lat": 33.5619089,
    "lng": 133.6979873,
    "prefecture": "中国・四国地方",
    "lines": [
      "JR/私鉄"
    ],
    "operator": ""
  },
  {
    "id": 5823,
    "name": "ハーバーランド",
    "nameEn": "Harborland",
    "lat": 34.6790031,
    "lng": 135.1788926,
    "prefecture": "兵庫県",
    "lines": [
      "JR/私鉄"
    ],
    "operator": ""
  },
  {
    "id": 2803,
    "name": "ハーモニーホール",
    "nameEn": "Harmony Hall",
    "lat": 36.0139597,
    "lng": 136.205317,
    "prefecture": "関東地方",
    "lines": [
      "JR/私鉄"
    ],
    "operator": ""
  },
  {
    "id": 5508,
    "name": "ハウステンボス",
    "nameEn": "Huis Ten Bosch",
    "lat": 33.0917944,
    "lng": 129.796595,
    "prefecture": "中国・四国地方",
    "lines": [
      "JR/私鉄"
    ],
    "operator": ""
  },
  {
    "id": 5353,
    "name": "はなみずき通",
    "nameEn": "Hanamizuki-dōri",
    "lat": 35.1776411,
    "lng": 137.0352461,
    "prefecture": "愛知県",
    "lines": [
      "JR/私鉄"
    ],
    "operator": ""
  },
  {
    "id": 2714,
    "name": "はりま勝原",
    "nameEn": "Harima-Katsuhara",
    "lat": 34.8101481,
    "lng": 134.6140705,
    "prefecture": "兵庫県",
    "lines": [
      "JR西日本",
      "JR山陽本線"
    ],
    "operator": "西日本旅客鉄道"
  },
  {
    "id": 8604,
    "name": "バルーンさが",
    "nameEn": "Balloon Saga",
    "lat": 33.2575818,
    "lng": 130.2463612,
    "prefecture": "福岡県",
    "lines": [
      "JR/私鉄"
    ],
    "operator": ""
  },
  {
    "id": 5724,
    "name": "はるひ野",
    "nameEn": "Haruhino",
    "lat": 35.6188401,
    "lng": 139.4646185,
    "prefecture": "東京都",
    "lines": [
      "小田急電鉄"
    ],
    "operator": "小田急電鉄"
  },
  {
    "id": 2862,
    "name": "ひぐち",
    "nameEn": "Higuchi",
    "lat": 36.3584812,
    "lng": 139.9704471,
    "prefecture": "関東地方",
    "lines": [
      "真岡鐵道"
    ],
    "operator": "真岡鐵道"
  },
  {
    "id": 7785,
    "name": "ひこね芹川",
    "nameEn": "Hikoneserikawa",
    "lat": 35.2622511,
    "lng": 136.2609702,
    "prefecture": "中部地方",
    "lines": [
      "JR/私鉄"
    ],
    "operator": ""
  },
  {
    "id": 6101,
    "name": "ひめじ別所",
    "nameEn": "Himeji-Bessho",
    "lat": 34.8054557,
    "lng": 134.7531576,
    "prefecture": "兵庫県",
    "lines": [
      "JR/私鉄"
    ],
    "operator": ""
  },
  {
    "id": 8407,
    "name": "ひらんだ",
    "nameEn": "Hiranda",
    "lat": 35.1649404,
    "lng": 138.1684848,
    "prefecture": "中部地方",
    "lines": [
      "JR/私鉄"
    ],
    "operator": ""
  },
  {
    "id": 8259,
    "name": "ファミリー公園前",
    "nameEn": "Family-Kōenmae",
    "lat": 34.598406,
    "lng": 135.785037,
    "prefecture": "関西地方",
    "lines": [
      "JR/私鉄"
    ],
    "operator": ""
  },
  {
    "id": 7786,
    "name": "フジテック前",
    "nameEn": "Fujitec-mae",
    "lat": 35.2943107,
    "lng": 136.2854969,
    "prefecture": "中部地方",
    "lines": [
      "JR/私鉄"
    ],
    "operator": ""
  },
  {
    "id": 2812,
    "name": "フラワータウン",
    "nameEn": "Flower Town",
    "lat": 34.8855795,
    "lng": 135.2022631,
    "prefecture": "兵庫県",
    "lines": [
      "神戸電鉄",
      "神戸電鉄公園都市線"
    ],
    "operator": "神戸電鉄"
  },
  {
    "id": 2548,
    "name": "フルーツパーク",
    "nameEn": "Fruit Park",
    "lat": 34.8345062,
    "lng": 137.7325018,
    "prefecture": "愛知県",
    "lines": [
      "JR/私鉄"
    ],
    "operator": ""
  },
  {
    "id": 6475,
    "name": "ふれあい生力",
    "nameEn": "Fureai Syouriki",
    "lat": 33.6999902,
    "lng": 130.7656516,
    "prefecture": "福岡県",
    "lines": [
      "平成筑豊鉄道",
      "平成筑豊鉄道伊田線"
    ],
    "operator": "平成筑豊鉄道"
  },
  {
    "id": 2809,
    "name": "ベル前",
    "nameEn": "Bell-mae",
    "lat": 36.0338314,
    "lng": 136.2139144,
    "prefecture": "関東地方",
    "lines": [
      "JR/私鉄"
    ],
    "operator": ""
  },
  {
    "id": 3815,
    "name": "ポートターミナル",
    "nameEn": "Port Terminal",
    "lat": 34.6813803,
    "lng": 135.2022901,
    "prefecture": "兵庫県",
    "lines": [
      "神戸新交通"
    ],
    "operator": "神戸新交通"
  },
  {
    "id": 7118,
    "name": "マキノ",
    "nameEn": "Makino",
    "lat": 35.4613743,
    "lng": 136.0598008,
    "prefecture": "中部地方",
    "lines": [
      "JR/私鉄"
    ],
    "operator": ""
  },
  {
    "id": 3829,
    "name": "まつもと町屋",
    "nameEn": "Matsumoto-Machiya",
    "lat": 36.0769726,
    "lng": 136.2292889,
    "prefecture": "関東地方",
    "lines": [
      "JR/私鉄"
    ],
    "operator": ""
  },
  {
    "id": 4455,
    "name": "マリンパーク",
    "nameEn": "Marine Park",
    "lat": 34.6842889,
    "lng": 135.2701132,
    "prefecture": "兵庫県",
    "lines": [
      "神戸新交通"
    ],
    "operator": "神戸新交通"
  },
  {
    "id": 7563,
    "name": "みさき公園",
    "nameEn": "Misaki-kōen",
    "lat": 34.3241769,
    "lng": 135.161204,
    "prefecture": "兵庫県",
    "lines": [
      "JR/私鉄"
    ],
    "operator": ""
  },
  {
    "id": 4800,
    "name": "みどり湖",
    "nameEn": "Midoriko",
    "lat": 36.0940401,
    "lng": 137.9821162,
    "prefecture": "関東地方",
    "lines": [
      "JR/私鉄"
    ],
    "operator": ""
  },
  {
    "id": 2940,
    "name": "みなとじま(キャンパス前)",
    "nameEn": "Minatojima (Campus Mae)",
    "lat": 34.6689656,
    "lng": 135.2101149,
    "prefecture": "兵庫県",
    "lines": [
      "神戸新交通"
    ],
    "operator": "神戸新交通"
  },
  {
    "id": 5822,
    "name": "みなと元町",
    "nameEn": "Minato Motomachi",
    "lat": 34.6856332,
    "lng": 135.1835416,
    "prefecture": "兵庫県",
    "lines": [
      "JR/私鉄"
    ],
    "operator": ""
  },
  {
    "id": 2654,
    "name": "みなみ子宝温泉",
    "nameEn": "Minami-Kodakara-Onsen",
    "lat": 35.627986,
    "lng": 136.950658,
    "prefecture": "中部地方",
    "lines": [
      "長良川鉄道",
      "長良川鉄道越美南線"
    ],
    "operator": "長良川鉄道"
  },
  {
    "id": 6255,
    "name": "みの",
    "nameEn": "Mino",
    "lat": 34.2061553,
    "lng": 133.710414,
    "prefecture": "関西地方",
    "lines": [
      "JR四国"
    ],
    "operator": "四国旅客鉄道"
  },
  {
    "id": 2291,
    "name": "めじろ台",
    "nameEn": "Mejirodai",
    "lat": 35.6434031,
    "lng": 139.30772,
    "prefecture": "東京都",
    "lines": [
      "京王電鉄"
    ],
    "operator": "京王電鉄"
  },
  {
    "id": 3751,
    "name": "モレラ岐阜",
    "nameEn": "Morera-Gifu",
    "lat": 35.4552697,
    "lng": 136.6697017,
    "prefecture": "愛知県",
    "lines": [
      "JR/私鉄"
    ],
    "operator": ""
  },
  {
    "id": 7089,
    "name": "やぐま台",
    "nameEn": "Yagumadai",
    "lat": 34.673825,
    "lng": 137.3095503,
    "prefecture": "愛知県",
    "lines": [
      "豊橋鉄道",
      "豊橋鉄道渥美線"
    ],
    "operator": "豊橋鉄道"
  },
  {
    "id": 136,
    "name": "やながわ希望の森公園前",
    "nameEn": "Yanagawa Kibonomori Koen-mae",
    "lat": 37.8574948,
    "lng": 140.6155192,
    "prefecture": "宮城県",
    "lines": [
      "JR/私鉄"
    ],
    "operator": ""
  },
  {
    "id": 2831,
    "name": "ゆめが丘",
    "nameEn": "Yumegaoka",
    "lat": 35.4057234,
    "lng": 139.4824589,
    "prefecture": "神奈川県",
    "lines": [
      "JR/私鉄"
    ],
    "operator": ""
  },
  {
    "id": 1100,
    "name": "よしかわ",
    "nameEn": "Yoshikawa",
    "lat": 33.5461153,
    "lng": 133.7101274,
    "prefecture": "中国・四国地方",
    "lines": [
      "JR/私鉄"
    ],
    "operator": ""
  },
  {
    "id": 3919,
    "name": "りんくうタウン",
    "nameEn": "Rinkū Town",
    "lat": 34.4107517,
    "lng": 135.2996565,
    "prefecture": "兵庫県",
    "lines": [
      "JR西日本"
    ],
    "operator": "西日本旅客鉄道;南海電気鉄道"
  },
  {
    "id": 5398,
    "name": "りんくう常滑",
    "nameEn": "Rinkū Tokoname",
    "lat": 34.879648,
    "lng": 136.8281655,
    "prefecture": "愛知県",
    "lines": [
      "名古屋鉄道"
    ],
    "operator": "名古屋鉄道"
  },
  {
    "id": 7386,
    "name": "一ツ木",
    "nameEn": "Hitotsugi",
    "lat": 35.0138287,
    "lng": 137.0252033,
    "prefecture": "愛知県",
    "lines": [
      "名古屋鉄道",
      "名古屋鉄道名古屋本線"
    ],
    "operator": "名古屋鉄道"
  },
  {
    "id": 6289,
    "name": "一の鳥居",
    "nameEn": "Ichinotorii",
    "lat": 34.8793663,
    "lng": 135.4201166,
    "prefecture": "兵庫県",
    "lines": [
      "JR/私鉄"
    ],
    "operator": ""
  },
  {
    "id": 2005,
    "name": "一乗谷",
    "nameEn": "Ichijōdani",
    "lat": 36.0137208,
    "lng": 136.29745,
    "prefecture": "関東地方",
    "lines": [
      "JR西日本"
    ],
    "operator": "西日本旅客鉄道"
  },
  {
    "id": 6562,
    "name": "一分",
    "nameEn": "Ichibu",
    "lat": 34.675907,
    "lng": 135.7079104,
    "prefecture": "関西地方",
    "lines": [
      "JR/私鉄"
    ],
    "operator": ""
  },
  {
    "id": 1445,
    "name": "一勝地",
    "nameEn": "Isshochi",
    "lat": 32.2501406,
    "lng": 130.6521695,
    "prefecture": "九州地方",
    "lines": [
      "JR九州",
      "JR肥薩線"
    ],
    "operator": "九州旅客鉄道"
  },
  {
    "id": 1124,
    "name": "一志",
    "nameEn": "Ichishi",
    "lat": 34.6548699,
    "lng": 136.4363266,
    "prefecture": "関西地方",
    "lines": [
      "JR/私鉄"
    ],
    "operator": ""
  },
  {
    "id": 5055,
    "name": "一日市場",
    "nameEn": "Hitoichiba",
    "lat": 36.2597548,
    "lng": 137.9042034,
    "prefecture": "関東地方",
    "lines": [
      "JR/私鉄"
    ],
    "operator": ""
  },
  {
    "id": 6463,
    "name": "一本松",
    "nameEn": "Ipponmatsu",
    "lat": 33.6559571,
    "lng": 130.8354382,
    "prefecture": "福岡県",
    "lines": [
      "JR九州"
    ],
    "operator": "九州旅客鉄道"
  },
  {
    "id": 6616,
    "name": "一橋学園",
    "nameEn": "Hitotsubashi-gakuen",
    "lat": 35.7217787,
    "lng": 139.4801232,
    "prefecture": "東京都",
    "lines": [
      "西武鉄道"
    ],
    "operator": "西武鉄道"
  },
  {
    "id": 1476,
    "name": "一武",
    "nameEn": "Ichibu",
    "lat": 32.2145539,
    "lng": 130.8399247,
    "prefecture": "九州地方",
    "lines": [
      "くま川鉄道",
      "くま川鉄道湯前線"
    ],
    "operator": "くま川鉄道"
  },
  {
    "id": 5302,
    "name": "一畑口",
    "nameEn": "Ichibataguchi",
    "lat": 35.4644876,
    "lng": 132.8827393,
    "prefecture": "中部地方",
    "lines": [
      "一畑電車",
      "一畑電車北松江線"
    ],
    "operator": "一畑電車"
  },
  {
    "id": 6189,
    "name": "一貴山",
    "nameEn": "Ikisan",
    "lat": 33.534333,
    "lng": 130.1682491,
    "prefecture": "福岡県",
    "lines": [
      "JR/私鉄"
    ],
    "operator": ""
  },
  {
    "id": 3105,
    "name": "一身田",
    "nameEn": "Ishinden",
    "lat": 34.7627725,
    "lng": 136.4995209,
    "prefecture": "関西地方",
    "lines": [
      "JR/私鉄"
    ],
    "operator": ""
  },
  {
    "id": 995,
    "name": "七久保",
    "nameEn": "Nanakubo",
    "lat": 35.6547232,
    "lng": 137.9113712,
    "prefecture": "中部地方",
    "lines": [
      "JR/私鉄"
    ],
    "operator": ""
  },
  {
    "id": 2856,
    "name": "七井",
    "nameEn": "Nanai",
    "lat": 36.4922043,
    "lng": 140.0944136,
    "prefecture": "関東地方",
    "lines": [
      "真岡鐵道"
    ],
    "operator": "真岡鐵道"
  },
  {
    "id": 2309,
    "name": "七和",
    "nameEn": "Nanawa",
    "lat": 35.0690049,
    "lng": 136.6157655,
    "prefecture": "愛知県",
    "lines": [
      "三岐鉄道",
      "三岐鉄道北勢線"
    ],
    "operator": "三岐鉄道"
  },
  {
    "id": 1646,
    "name": "七塚",
    "nameEn": "Nanatsuka",
    "lat": 34.8446151,
    "lng": 132.9860591,
    "prefecture": "広島県",
    "lines": [
      "JR/私鉄"
    ],
    "operator": ""
  },
  {
    "id": 41,
    "name": "七日町",
    "nameEn": "Nanukamachi",
    "lat": 37.5014696,
    "lng": 139.9191494,
    "prefecture": "関東地方",
    "lines": [
      "JR/私鉄"
    ],
    "operator": ""
  },
  {
    "id": 1341,
    "name": "万ヶ塚",
    "nameEn": "Mangatsuka",
    "lat": 31.8173891,
    "lng": 131.0640691,
    "prefecture": "九州地方",
    "lines": [
      "JR九州",
      "JR吉都線"
    ],
    "operator": "九州旅客鉄道"
  },
  {
    "id": 4364,
    "name": "万博記念公園",
    "nameEn": "Bampakukinenkoen",
    "lat": 34.8068672,
    "lng": 135.5301449,
    "prefecture": "京都府",
    "lines": [
      "大阪高速鉄道"
    ],
    "operator": "大阪高速鉄道"
  },
  {
    "id": 2653,
    "name": "万場",
    "nameEn": "Manba",
    "lat": 35.8336096,
    "lng": 136.8832317,
    "prefecture": "中部地方",
    "lines": [
      "長良川鉄道",
      "長良川鉄道越美南線"
    ],
    "operator": "長良川鉄道"
  },
  {
    "id": 7424,
    "name": "万富",
    "nameEn": "Mantomi",
    "lat": 34.7582757,
    "lng": 134.0805642,
    "prefecture": "関西地方",
    "lines": [
      "JR西日本"
    ],
    "operator": "西日本旅客鉄道"
  },
  {
    "id": 1780,
    "name": "万能倉",
    "nameEn": "Managura",
    "lat": 34.5509873,
    "lng": 133.3381302,
    "prefecture": "広島県",
    "lines": [
      "JR/私鉄"
    ],
    "operator": ""
  },
  {
    "id": 5386,
    "name": "万願寺",
    "nameEn": "Manganji",
    "lat": 35.6712772,
    "lng": 139.4200659,
    "prefecture": "東京都",
    "lines": [
      "多摩都市モノレール"
    ],
    "operator": "多摩都市モノレール"
  },
  {
    "id": 2208,
    "name": "三ヶ山口",
    "nameEn": "Mikeyamaguchi",
    "lat": 34.4072449,
    "lng": 135.3849849,
    "prefecture": "大阪府",
    "lines": [
      "JR/私鉄"
    ],
    "operator": ""
  },
  {
    "id": 2539,
    "name": "三ヶ日",
    "nameEn": "Mikkabi",
    "lat": 34.802616,
    "lng": 137.5518728,
    "prefecture": "愛知県",
    "lines": [
      "JR/私鉄"
    ],
    "operator": ""
  },
  {
    "id": 4030,
    "name": "三ヶ根",
    "nameEn": "Sangane",
    "lat": 34.8356897,
    "lng": 137.1772359,
    "prefecture": "愛知県",
    "lines": [
      "JR/私鉄"
    ],
    "operator": ""
  },
  {
    "id": 2782,
    "name": "三ヶ森",
    "nameEn": "Sangamori",
    "lat": 33.8347233,
    "lng": 130.7360346,
    "prefecture": "福岡県",
    "lines": [
      "JR/私鉄"
    ],
    "operator": ""
  },
  {
    "id": 7852,
    "name": "三つ峠",
    "nameEn": "Mitsutouge",
    "lat": 35.5241802,
    "lng": 138.8453597,
    "prefecture": "中部地方",
    "lines": [
      "JR/私鉄"
    ],
    "operator": ""
  },
  {
    "id": 2212,
    "name": "三ツ松",
    "nameEn": "Mitsumatsu",
    "lat": 34.4108953,
    "lng": 135.3833246,
    "prefecture": "大阪府",
    "lines": [
      "JR/私鉄"
    ],
    "operator": ""
  },
  {
    "id": 2220,
    "name": "三ツ石",
    "nameEn": "Mitsuishi",
    "lat": 32.8640617,
    "lng": 130.738365,
    "prefecture": "九州地方",
    "lines": [
      "熊本電気鉄道",
      "熊本電気鉄道菊池線"
    ],
    "operator": "熊本電気鉄道"
  },
  {
    "id": 4046,
    "name": "三ノ宮",
    "nameEn": "Sannomiya",
    "lat": 34.6948605,
    "lng": 135.1950871,
    "prefecture": "兵庫県",
    "lines": [
      "JR/私鉄"
    ],
    "operator": ""
  },
  {
    "id": 1767,
    "name": "三井野原",
    "nameEn": "Miinohara",
    "lat": 35.0912688,
    "lng": 133.1162723,
    "prefecture": "中部地方",
    "lines": [
      "JR/私鉄"
    ],
    "operator": ""
  },
  {
    "id": 2155,
    "name": "三代橋",
    "nameEn": "Midaibashi",
    "lat": 33.1891592,
    "lng": 129.8656598,
    "prefecture": "中国・四国地方",
    "lines": [
      "JR/私鉄"
    ],
    "operator": ""
  },
  {
    "id": 6435,
    "name": "三会",
    "nameEn": "Mie",
    "lat": 32.8146363,
    "lng": 130.3574623,
    "prefecture": "九州地方",
    "lines": [
      "JR/私鉄"
    ],
    "operator": ""
  },
  {
    "id": 8575,
    "name": "三保三隅",
    "nameEn": "Miho-Misumi",
    "lat": 34.7958838,
    "lng": 131.9561286,
    "prefecture": "関西地方",
    "lines": [
      "JR/私鉄"
    ],
    "operator": ""
  },
  {
    "id": 3749,
    "name": "三俣",
    "nameEn": "Mitsumata",
    "lat": 36.3937327,
    "lng": 139.0890263,
    "prefecture": "関東地方",
    "lines": [
      "JR/私鉄"
    ],
    "operator": ""
  },
  {
    "id": 8127,
    "name": "三加茂",
    "nameEn": "Mikamo",
    "lat": 34.0358051,
    "lng": 133.9487293,
    "prefecture": "関西地方",
    "lines": [
      "JR/私鉄"
    ],
    "operator": ""
  },
  {
    "id": 2804,
    "name": "三十八社",
    "nameEn": "Sanjūhassha",
    "lat": 35.9890791,
    "lng": 136.1937667,
    "prefecture": "中部地方",
    "lines": [
      "JR/私鉄"
    ],
    "operator": ""
  },
  {
    "id": 4134,
    "name": "三原",
    "nameEn": "Mihara",
    "lat": 34.4005041,
    "lng": 133.0832863,
    "prefecture": "広島県",
    "lines": [
      "JR西日本"
    ],
    "operator": "西日本旅客鉄道"
  },
  {
    "id": 774,
    "name": "三国",
    "nameEn": "Mikuni",
    "lat": 36.217131,
    "lng": 136.1495747,
    "prefecture": "関東地方",
    "lines": [
      "JR/私鉄"
    ],
    "operator": ""
  },
  {
    "id": 6229,
    "name": "三国が丘",
    "nameEn": "Mikuni Gaoka",
    "lat": 33.4369137,
    "lng": 130.5632042,
    "prefecture": "福岡県",
    "lines": [
      "西日本鉄道",
      "西日本鉄道天神大牟田線"
    ],
    "operator": "西日本鉄道"
  },
  {
    "id": 8203,
    "name": "三国港",
    "nameEn": "Mikuni-Minato",
    "lat": 36.2201961,
    "lng": 136.140066,
    "prefecture": "関東地方",
    "lines": [
      "JR/私鉄"
    ],
    "operator": ""
  },
  {
    "id": 770,
    "name": "三国神社",
    "nameEn": "Mikuni-Jinja",
    "lat": 36.2148339,
    "lng": 136.1580565,
    "prefecture": "関東地方",
    "lines": [
      "JR/私鉄"
    ],
    "operator": ""
  },
  {
    "id": 5457,
    "name": "三好ヶ丘",
    "nameEn": "Miyoshigaoka",
    "lat": 35.1269776,
    "lng": 137.1111057,
    "prefecture": "愛知県",
    "lines": [
      "名古屋鉄道"
    ],
    "operator": "名古屋鉄道"
  },
  {
    "id": 2237,
    "name": "三好町",
    "nameEn": "Miyoshicho",
    "lat": 36.391748,
    "lng": 138.2353744,
    "prefecture": "関東地方",
    "lines": [
      "JR/私鉄"
    ],
    "operator": ""
  },
  {
    "id": 3827,
    "name": "三室戸",
    "nameEn": "Mimurodo",
    "lat": 34.8988619,
    "lng": 135.8063415,
    "prefecture": "京都府",
    "lines": [
      "京阪電気鉄道",
      "京阪電気鉄道宇治線"
    ],
    "operator": "京阪電気鉄道"
  },
  {
    "id": 4084,
    "name": "三宮",
    "nameEn": "Sannomiya",
    "lat": 34.6938976,
    "lng": 135.1924441,
    "prefecture": "兵庫県",
    "lines": [
      "神戸市交通局",
      "地下鉄西神・山手線"
    ],
    "operator": "神戸市交通局"
  },
  {
    "id": 4085,
    "name": "三宮",
    "nameEn": "Sannomiya",
    "lat": 34.6945647,
    "lng": 135.195217,
    "prefecture": "兵庫県",
    "lines": [
      "神戸新交通",
      "ポートライナー"
    ],
    "operator": "神戸新交通"
  },
  {
    "id": 4086,
    "name": "三宮・花時計前",
    "nameEn": "Sannomiya-Hanadokeimae",
    "lat": 34.691763,
    "lng": 135.1959069,
    "prefecture": "兵庫県",
    "lines": [
      "神戸市交通局",
      "地下鉄海岸線"
    ],
    "operator": "神戸市交通局"
  },
  {
    "id": 5527,
    "name": "三山木",
    "nameEn": "Miyamaki",
    "lat": 34.7981778,
    "lng": 135.7860502,
    "prefecture": "京都府",
    "lines": [
      "JR/私鉄"
    ],
    "operator": ""
  },
  {
    "id": 870,
    "name": "三岡",
    "nameEn": "Mitsuoka",
    "lat": 36.30409,
    "lng": 138.4486327,
    "prefecture": "関東地方",
    "lines": [
      "JR/私鉄"
    ],
    "operator": ""
  },
  {
    "id": 2711,
    "name": "三峰口",
    "nameEn": "Mitsumineguchi",
    "lat": 35.9600528,
    "lng": 138.9790441,
    "prefecture": "埼玉県",
    "lines": [
      "JR/私鉄"
    ],
    "operator": ""
  },
  {
    "id": 3556,
    "name": "三島",
    "nameEn": "Mishima",
    "lat": 35.1262974,
    "lng": 138.9115159,
    "prefecture": "中部地方",
    "lines": [
      "JR東海"
    ],
    "operator": "東海旅客鉄道"
  },
  {
    "id": 7736,
    "name": "三島二日町",
    "nameEn": "Mishima-Futsukamachi",
    "lat": 35.1106558,
    "lng": 138.9265005,
    "prefecture": "中部地方",
    "lines": [
      "JR/私鉄"
    ],
    "operator": ""
  },
  {
    "id": 7735,
    "name": "三島広小路",
    "nameEn": "Mishima-Hirokōji",
    "lat": 35.1189767,
    "lng": 138.9114339,
    "prefecture": "中部地方",
    "lines": [
      "JR/私鉄"
    ],
    "operator": ""
  },
  {
    "id": 245,
    "name": "三島田町",
    "nameEn": "Mishima-Tamachi",
    "lat": 35.1164479,
    "lng": 138.9178482,
    "prefecture": "中部地方",
    "lines": [
      "JR/私鉄"
    ],
    "operator": ""
  },
  {
    "id": 3171,
    "name": "三崎口",
    "nameEn": "Misakiguchi",
    "lat": 35.1778307,
    "lng": 139.6330533,
    "prefecture": "神奈川県",
    "lines": [
      "京浜急行電鉄 (Keikyu Corporation)"
    ],
    "operator": "京浜急行電鉄 (Keikyu Corporation)"
  },
  {
    "id": 83,
    "name": "三川",
    "nameEn": "Mikawa",
    "lat": 37.7087576,
    "lng": 139.3818032,
    "prefecture": "関東地方",
    "lines": [
      "JR/私鉄"
    ],
    "operator": ""
  },
  {
    "id": 8533,
    "name": "三方",
    "nameEn": "Mikata",
    "lat": 35.5557425,
    "lng": 135.9094244,
    "prefecture": "中部地方",
    "lines": [
      "JR/私鉄"
    ],
    "operator": ""
  },
  {
    "id": 7625,
    "name": "三日市",
    "nameEn": "Mikkaichi",
    "lat": 34.8801965,
    "lng": 136.5620307,
    "prefecture": "関西地方",
    "lines": [
      "JR/私鉄"
    ],
    "operator": ""
  },
  {
    "id": 4283,
    "name": "三日市町",
    "nameEn": "Mikkaichichō",
    "lat": 34.4366198,
    "lng": 135.5713025,
    "prefecture": "大阪府",
    "lines": [
      "JR/私鉄"
    ],
    "operator": ""
  },
  {
    "id": 1821,
    "name": "三日月",
    "nameEn": "Mikazuki",
    "lat": 34.985006,
    "lng": 134.4353888,
    "prefecture": "兵庫県",
    "lines": [
      "JR/私鉄"
    ],
    "operator": ""
  },
  {
    "id": 72,
    "name": "三春",
    "nameEn": "Miharu",
    "lat": 37.4496368,
    "lng": 140.4793865,
    "prefecture": "関東地方",
    "lines": [
      "JR/私鉄"
    ],
    "operator": ""
  },
  {
    "id": 2817,
    "name": "三木",
    "nameEn": "Miki",
    "lat": 34.7997742,
    "lng": 134.9817843,
    "prefecture": "兵庫県",
    "lines": [
      "JR/私鉄"
    ],
    "operator": ""
  },
  {
    "id": 2827,
    "name": "三木上の丸",
    "nameEn": "Miki Uenomaru",
    "lat": 34.80013,
    "lng": 134.9886604,
    "prefecture": "兵庫県",
    "lines": [
      "JR/私鉄"
    ],
    "operator": ""
  },
  {
    "id": 1145,
    "name": "三木里",
    "nameEn": "Mikisato",
    "lat": 34.001594,
    "lng": 136.2030503,
    "prefecture": "関西地方",
    "lines": [
      "JR/私鉄"
    ],
    "operator": ""
  },
  {
    "id": 6728,
    "name": "三本松",
    "nameEn": "Sambommatsu",
    "lat": 34.5787051,
    "lng": 136.0363137,
    "prefecture": "関西地方",
    "lines": [
      "近畿日本鉄道"
    ],
    "operator": "近畿日本鉄道"
  },
  {
    "id": 7450,
    "name": "三本松",
    "nameEn": "Sambommatsu",
    "lat": 34.2516356,
    "lng": 134.3342521,
    "prefecture": "兵庫県",
    "lines": [
      "JR四国"
    ],
    "operator": "四国旅客鉄道"
  },
  {
    "id": 1804,
    "name": "三本松口",
    "nameEn": "Sambommatsuguchi",
    "lat": 35.44626,
    "lng": 133.3228353,
    "prefecture": "中部地方",
    "lines": [
      "JR/私鉄"
    ],
    "operator": ""
  },
  {
    "id": 852,
    "name": "三条",
    "nameEn": "Sanjo",
    "lat": 37.6211398,
    "lng": 138.960895,
    "prefecture": "関東地方",
    "lines": [
      "JR/私鉄"
    ],
    "operator": ""
  },
  {
    "id": 8214,
    "name": "三条",
    "nameEn": "Sanjo",
    "lat": 34.3199262,
    "lng": 134.0496162,
    "prefecture": "関西地方",
    "lines": [
      "JR/私鉄"
    ],
    "operator": ""
  },
  {
    "id": 8547,
    "name": "三松",
    "nameEn": "Mitsumatsu",
    "lat": 35.488803,
    "lng": 135.5204634,
    "prefecture": "中部地方",
    "lines": [
      "JR/私鉄"
    ],
    "operator": ""
  },
  {
    "id": 5654,
    "name": "三枚橋",
    "nameEn": "Sammaibashi",
    "lat": 36.313581,
    "lng": 139.3548272,
    "prefecture": "関東地方",
    "lines": [
      "JR/私鉄"
    ],
    "operator": ""
  },
  {
    "id": 7363,
    "name": "三柿野",
    "nameEn": "Mikakino",
    "lat": 35.4001437,
    "lng": 136.8757888,
    "prefecture": "愛知県",
    "lines": [
      "名古屋鉄道"
    ],
    "operator": "名古屋鉄道"
  },
  {
    "id": 1635,
    "name": "三次",
    "nameEn": "Miyoshi",
    "lat": 34.8026373,
    "lng": 132.856097,
    "prefecture": "広島県",
    "lines": [
      "JR西日本"
    ],
    "operator": "西日本旅客鉄道"
  },
  {
    "id": 1242,
    "name": "三毛門",
    "nameEn": "Mikekado",
    "lat": 33.6149634,
    "lng": 131.1556412,
    "prefecture": "福岡県",
    "lines": [
      "JR九州",
      "JR日豊線"
    ],
    "operator": "九州旅客鉄道"
  },
  {
    "id": 6218,
    "name": "三沢",
    "nameEn": "Mitsusawa",
    "lat": 33.4233944,
    "lng": 130.5604271,
    "prefecture": "福岡県",
    "lines": [
      "西日本鉄道",
      "西日本鉄道天神大牟田線"
    ],
    "operator": "西日本鉄道"
  },
  {
    "id": 1024,
    "name": "三河一宮",
    "nameEn": "Mikawa-Ichinomiya",
    "lat": 34.8480089,
    "lng": 137.4145912,
    "prefecture": "愛知県",
    "lines": [
      "JR/私鉄"
    ],
    "operator": ""
  },
  {
    "id": 4019,
    "name": "三河三谷",
    "nameEn": "Mikawa-Miya",
    "lat": 34.8183063,
    "lng": 137.2492862,
    "prefecture": "愛知県",
    "lines": [
      "JR/私鉄"
    ],
    "operator": ""
  },
  {
    "id": 5877,
    "name": "三河上郷",
    "nameEn": "Mikawa-Kamigō",
    "lat": 35.0127162,
    "lng": 137.1327875,
    "prefecture": "愛知県",
    "lines": [
      "愛知環状鉄道",
      "愛知環状鉄道線"
    ],
    "operator": "愛知環状鉄道"
  },
  {
    "id": 7273,
    "name": "三河八橋",
    "nameEn": "Mikawa Yatsuhashi",
    "lat": 35.0109809,
    "lng": 137.0773479,
    "prefecture": "愛知県",
    "lines": [
      "JR/私鉄"
    ],
    "operator": ""
  },
  {
    "id": 1327,
    "name": "三河内",
    "nameEn": "Mikawachi",
    "lat": 33.1504687,
    "lng": 129.8294343,
    "prefecture": "中国・四国地方",
    "lines": [
      "JR九州",
      "JR佐世保線"
    ],
    "operator": "九州旅客鉄道"
  },
  {
    "id": 4020,
    "name": "三河塩津",
    "nameEn": "Mikawa-Shiotsu",
    "lat": 34.8257464,
    "lng": 137.2021951,
    "prefecture": "愛知県",
    "lines": [
      "JR/私鉄"
    ],
    "operator": ""
  },
  {
    "id": 3970,
    "name": "三河大塚",
    "nameEn": "Mikawa-Otsuka",
    "lat": 34.815701,
    "lng": 137.2828525,
    "prefecture": "愛知県",
    "lines": [
      "JR/私鉄"
    ],
    "operator": ""
  },
  {
    "id": 1032,
    "name": "三河大野",
    "nameEn": "Mikawa-Ono",
    "lat": 34.9514482,
    "lng": 137.6028536,
    "prefecture": "愛知県",
    "lines": [
      "JR/私鉄"
    ],
    "operator": ""
  },
  {
    "id": 4018,
    "name": "三河安城",
    "nameEn": "Mikawa-Anjō",
    "lat": 34.9703195,
    "lng": 137.0614456,
    "prefecture": "愛知県",
    "lines": [
      "JR/私鉄"
    ],
    "operator": ""
  },
  {
    "id": 1015,
    "name": "三河川合",
    "nameEn": "Mikawa-Kawai",
    "lat": 35.001712,
    "lng": 137.664008,
    "prefecture": "愛知県",
    "lines": [
      "JR/私鉄"
    ],
    "operator": ""
  },
  {
    "id": 1030,
    "name": "三河東郷",
    "nameEn": "Mikawa-Tōgō",
    "lat": 34.9121868,
    "lng": 137.5272478,
    "prefecture": "愛知県",
    "lines": [
      "JR/私鉄"
    ],
    "operator": ""
  },
  {
    "id": 1011,
    "name": "三河槙原",
    "nameEn": "Mikawa-Makihara",
    "lat": 34.9885841,
    "lng": 137.6207693,
    "prefecture": "愛知県",
    "lines": [
      "JR/私鉄"
    ],
    "operator": ""
  },
  {
    "id": 7092,
    "name": "三河田原",
    "nameEn": "Mikawa Tahara",
    "lat": 34.666858,
    "lng": 137.2690362,
    "prefecture": "愛知県",
    "lines": [
      "豊橋鉄道",
      "豊橋鉄道渥美線"
    ],
    "operator": "豊橋鉄道"
  },
  {
    "id": 7283,
    "name": "三河知立",
    "nameEn": "Mikawa Chiryū",
    "lat": 35.005657,
    "lng": 137.054901,
    "prefecture": "愛知県",
    "lines": [
      "JR/私鉄"
    ],
    "operator": ""
  },
  {
    "id": 2760,
    "name": "三河豊田",
    "nameEn": "Mikawa-Toyota",
    "lat": 35.0557777,
    "lng": 137.1509052,
    "prefecture": "愛知県",
    "lines": [
      "愛知環状鉄道",
      "愛知環状鉄道線"
    ],
    "operator": "愛知環状鉄道"
  },
  {
    "id": 7325,
    "name": "三河高浜",
    "nameEn": "Mikawa Takahama",
    "lat": 34.930563,
    "lng": 136.9900475,
    "prefecture": "愛知県",
    "lines": [
      "JR/私鉄"
    ],
    "operator": ""
  },
  {
    "id": 7260,
    "name": "三河鳥羽",
    "nameEn": "Mikawa Toba",
    "lat": 34.793347,
    "lng": 137.1051823,
    "prefecture": "愛知県",
    "lines": [
      "JR/私鉄"
    ],
    "operator": ""
  },
  {
    "id": 2314,
    "name": "三河鹿島",
    "nameEn": "Mikawa Kashima",
    "lat": 34.8133214,
    "lng": 137.1896462,
    "prefecture": "愛知県",
    "lines": [
      "JR/私鉄"
    ],
    "operator": ""
  },
  {
    "id": 3606,
    "name": "三津",
    "nameEn": "Mitsu",
    "lat": 33.8638379,
    "lng": 132.7197282,
    "prefecture": "中国・四国地方",
    "lines": [
      "伊予鉄道"
    ],
    "operator": "伊予鉄道"
  },
  {
    "id": 6062,
    "name": "三津浜",
    "nameEn": "Mitsuhama",
    "lat": 33.8624691,
    "lng": 132.7287751,
    "prefecture": "中国・四国地方",
    "lines": [
      "JR/私鉄"
    ],
    "operator": ""
  },
  {
    "id": 1865,
    "name": "三浦",
    "nameEn": "Miura",
    "lat": 35.141664,
    "lng": 134.0780212,
    "prefecture": "中部地方",
    "lines": [
      "JR/私鉄"
    ],
    "operator": ""
  },
  {
    "id": 3170,
    "name": "三浦海岸",
    "nameEn": "Miurakaigan",
    "lat": 35.1882147,
    "lng": 139.6532667,
    "prefecture": "神奈川県",
    "lines": [
      "京浜急行電鉄 (Keikyu Corporation)"
    ],
    "operator": "京浜急行電鉄 (Keikyu Corporation)"
  },
  {
    "id": 4882,
    "name": "三溝",
    "nameEn": "Samizo",
    "lat": 36.2128419,
    "lng": 137.8914214,
    "prefecture": "関東地方",
    "lines": [
      "JR/私鉄"
    ],
    "operator": ""
  },
  {
    "id": 6221,
    "name": "三潴",
    "nameEn": "Mizuma",
    "lat": 33.2562161,
    "lng": 130.4695223,
    "prefecture": "福岡県",
    "lines": [
      "西日本鉄道",
      "西日本鉄道天神大牟田線"
    ],
    "operator": "西日本鉄道"
  },
  {
    "id": 1172,
    "name": "三瀬谷",
    "nameEn": "Misedani",
    "lat": 34.3946767,
    "lng": 136.4086847,
    "prefecture": "関西地方",
    "lines": [
      "JR/私鉄"
    ],
    "operator": ""
  },
  {
    "id": 3422,
    "name": "三田",
    "nameEn": "Sanda",
    "lat": 34.8883577,
    "lng": 135.2302716,
    "prefecture": "兵庫県",
    "lines": [
      "神戸電鉄",
      "神戸電鉄三田線"
    ],
    "operator": "神戸電鉄"
  },
  {
    "id": 3812,
    "name": "三田本町",
    "nameEn": "Sanda Hommachi",
    "lat": 34.8817187,
    "lng": 135.2296112,
    "prefecture": "兵庫県",
    "lines": [
      "神戸電鉄",
      "神戸電鉄三田線;神戸電鉄公園都市線"
    ],
    "operator": "神戸電鉄"
  },
  {
    "id": 7427,
    "name": "三石",
    "nameEn": "Mitsuishi",
    "lat": 34.8043755,
    "lng": 134.2757446,
    "prefecture": "兵庫県",
    "lines": [
      "JR西日本"
    ],
    "operator": "西日本旅客鉄道"
  },
  {
    "id": 8012,
    "name": "三縄",
    "nameEn": "Minawa",
    "lat": 34.0069906,
    "lng": 133.7873679,
    "prefecture": "関西地方",
    "lines": [
      "JR四国"
    ],
    "operator": "四国旅客鉄道"
  },
  {
    "id": 1318,
    "name": "三股",
    "nameEn": "Mimata",
    "lat": 31.7338903,
    "lng": 131.1199481,
    "prefecture": "九州地方",
    "lines": [
      "JR九州",
      "JR日豊線"
    ],
    "operator": "九州旅客鉄道"
  },
  {
    "id": 1790,
    "name": "三良坂",
    "nameEn": "Mirasaka",
    "lat": 34.766254,
    "lng": 132.9575902,
    "prefecture": "広島県",
    "lines": [
      "JR/私鉄"
    ],
    "operator": ""
  },
  {
    "id": 7723,
    "name": "三苫",
    "nameEn": "Mitoma",
    "lat": 33.7021973,
    "lng": 130.4225598,
    "prefecture": "福岡県",
    "lines": [
      "JR/私鉄"
    ],
    "operator": ""
  },
  {
    "id": 2199,
    "name": "三菱自工前",
    "nameEn": "Mitsubishijiko-mae",
    "lat": 34.5229584,
    "lng": 133.7331149,
    "prefecture": "関西地方",
    "lines": [
      "水島臨海鉄道",
      "水島臨海鉄道水島本線"
    ],
    "operator": "水島臨海鉄道"
  },
  {
    "id": 1586,
    "name": "三見",
    "nameEn": "Sammi",
    "lat": 34.397333,
    "lng": 131.3301857,
    "prefecture": "関西地方",
    "lines": [
      "JR/私鉄"
    ],
    "operator": ""
  },
  {
    "id": 1396,
    "name": "三角",
    "nameEn": "Misumi",
    "lat": 32.6077458,
    "lng": 130.4696756,
    "prefecture": "九州地方",
    "lines": [
      "JR九州",
      "JR三角線"
    ],
    "operator": "九州旅客鉄道"
  },
  {
    "id": 2410,
    "name": "三谷",
    "nameEn": "Mitani",
    "lat": 34.6164299,
    "lng": 133.6195968,
    "prefecture": "関西地方",
    "lines": [
      "JR/私鉄"
    ],
    "operator": ""
  },
  {
    "id": 8579,
    "name": "三谷",
    "nameEn": "Mitani",
    "lat": 34.3418007,
    "lng": 131.6245729,
    "prefecture": "関西地方",
    "lines": [
      "JR/私鉄"
    ],
    "operator": ""
  },
  {
    "id": 6426,
    "name": "三輪",
    "nameEn": "Miwa",
    "lat": 34.5268994,
    "lng": 135.8486442,
    "prefecture": "関西地方",
    "lines": [
      "JR/私鉄"
    ],
    "operator": ""
  },
  {
    "id": 1923,
    "name": "三輪崎",
    "nameEn": "Miwasaki",
    "lat": 33.6894155,
    "lng": 135.9847756,
    "prefecture": "中国・四国地方",
    "lines": [
      "JR/私鉄"
    ],
    "operator": ""
  },
  {
    "id": 6408,
    "name": "三郷",
    "nameEn": "Sangō",
    "lat": 35.2163468,
    "lng": 137.0525323,
    "prefecture": "愛知県",
    "lines": [
      "名古屋鉄道"
    ],
    "operator": "名古屋鉄道"
  },
  {
    "id": 7648,
    "name": "三里",
    "nameEn": "Misato",
    "lat": 35.1069876,
    "lng": 136.5385325,
    "prefecture": "中部地方",
    "lines": [
      "三岐鉄道",
      "三岐鉄道三岐線"
    ],
    "operator": "三岐鉄道"
  },
  {
    "id": 8492,
    "name": "三里木",
    "nameEn": "Sanrigi",
    "lat": 32.8618003,
    "lng": 130.7966003,
    "prefecture": "九州地方",
    "lines": [
      "JR九州",
      "JR豊肥本線"
    ],
    "operator": "九州旅客鉄道"
  },
  {
    "id": 7516,
    "name": "三重町",
    "nameEn": "Miemachi",
    "lat": 32.9837808,
    "lng": 131.5842766,
    "prefecture": "九州地方",
    "lines": [
      "JR九州",
      "JR豊肥本線"
    ],
    "operator": "九州旅客鉄道"
  },
  {
    "id": 1163,
    "name": "三野瀬",
    "nameEn": "Minose",
    "lat": 34.16746,
    "lng": 136.2821048,
    "prefecture": "関西地方",
    "lines": [
      "JR/私鉄"
    ],
    "operator": ""
  },
  {
    "id": 1325,
    "name": "三間坂",
    "nameEn": "Mimasaka",
    "lat": 33.194725,
    "lng": 129.9476933,
    "prefecture": "福岡県",
    "lines": [
      "JR九州",
      "JR佐世保線"
    ],
    "operator": "九州旅客鉄道"
  },
  {
    "id": 8351,
    "name": "三関",
    "nameEn": "Mitsuseki",
    "lat": 39.1101245,
    "lng": 140.4836784,
    "prefecture": "関東地方",
    "lines": [
      "JR/私鉄"
    ],
    "operator": ""
  },
  {
    "id": 1894,
    "name": "三雲",
    "nameEn": "Mikumo",
    "lat": 34.9831773,
    "lng": 136.1178406,
    "prefecture": "関西地方",
    "lines": [
      "JR/私鉄"
    ],
    "operator": ""
  },
  {
    "id": 7308,
    "name": "上ゲ",
    "nameEn": "Age",
    "lat": 34.8586825,
    "lng": 136.9164551,
    "prefecture": "愛知県",
    "lines": [
      "名古屋鉄道",
      "河和線"
    ],
    "operator": "名古屋鉄道"
  },
  {
    "id": 1122,
    "name": "上ノ庄",
    "nameEn": "Kaminoshō",
    "lat": 34.597869,
    "lng": 136.4994964,
    "prefecture": "関西地方",
    "lines": [
      "JR/私鉄"
    ],
    "operator": ""
  },
  {
    "id": 7442,
    "name": "上の町",
    "nameEn": "Kaminochō",
    "lat": 34.4906669,
    "lng": 133.8151657,
    "prefecture": "関西地方",
    "lines": [
      "JR西日本"
    ],
    "operator": "西日本旅客鉄道"
  },
  {
    "id": 2667,
    "name": "上万場",
    "nameEn": "Kami-Manba",
    "lat": 35.8444404,
    "lng": 136.8767728,
    "prefecture": "中部地方",
    "lines": [
      "長良川鉄道",
      "長良川鉄道越美南線"
    ],
    "operator": "長良川鉄道"
  },
  {
    "id": 1645,
    "name": "上三田",
    "nameEn": "Kami-Mita",
    "lat": 34.5387658,
    "lng": 132.6434908,
    "prefecture": "広島県",
    "lines": [
      "JR西日本"
    ],
    "operator": "西日本旅客鉄道"
  },
  {
    "id": 6176,
    "name": "上三緒",
    "nameEn": "Kami-Mio",
    "lat": 33.622975,
    "lng": 130.7134136,
    "prefecture": "福岡県",
    "lines": [
      "JR九州",
      "JR後藤寺線"
    ],
    "operator": "九州旅客鉄道"
  },
  {
    "id": 1793,
    "name": "上下",
    "nameEn": "Joge",
    "lat": 34.6948618,
    "lng": 133.1175879,
    "prefecture": "広島県",
    "lines": [
      "JR/私鉄"
    ],
    "operator": ""
  },
  {
    "id": 8538,
    "name": "上中",
    "nameEn": "Kaminaka",
    "lat": 35.4637667,
    "lng": 135.8554778,
    "prefecture": "中部地方",
    "lines": [
      "JR/私鉄"
    ],
    "operator": ""
  },
  {
    "id": 7374,
    "name": "上丸渕",
    "nameEn": "Kami-Marubuchi",
    "lat": 35.2342007,
    "lng": 136.7326675,
    "prefecture": "愛知県",
    "lines": [
      "名古屋鉄道"
    ],
    "operator": "名古屋鉄道"
  },
  {
    "id": 4173,
    "name": "上之郷",
    "nameEn": "Kaminogo",
    "lat": 34.3796151,
    "lng": 136.8114592,
    "prefecture": "関西地方",
    "lines": [
      "JR/私鉄"
    ],
    "operator": ""
  },
  {
    "id": 343,
    "name": "上二田",
    "nameEn": "Kami-Futada",
    "lat": 39.8689681,
    "lng": 140.0040946,
    "prefecture": "関東地方",
    "lines": [
      "JR/私鉄"
    ],
    "operator": ""
  },
  {
    "id": 6178,
    "name": "上伊万里",
    "nameEn": "Kami-Imari",
    "lat": 33.2701263,
    "lng": 129.8921064,
    "prefecture": "中国・四国地方",
    "lines": [
      "JR九州",
      "JR筑肥線"
    ],
    "operator": "九州旅客鉄道"
  },
  {
    "id": 7175,
    "name": "上伊田",
    "nameEn": "Kami Ita",
    "lat": 33.6480081,
    "lng": 130.8300917,
    "prefecture": "福岡県",
    "lines": [
      "平成筑豊鉄道",
      "平成筑豊鉄道田川線"
    ],
    "operator": "平成筑豊鉄道"
  },
  {
    "id": 4937,
    "name": "上伊集院",
    "nameEn": "Kami-Ijūin",
    "lat": 31.5939724,
    "lng": 130.4594667,
    "prefecture": "九州地方",
    "lines": [
      "JR九州"
    ],
    "operator": "九州旅客鉄道"
  },
  {
    "id": 5161,
    "name": "上保原",
    "nameEn": "Kami-Hobara",
    "lat": 37.8097055,
    "lng": 140.5431712,
    "prefecture": "宮城県",
    "lines": [
      "JR/私鉄"
    ],
    "operator": ""
  },
  {
    "id": 5830,
    "name": "上北台",
    "nameEn": "Kamikitadai",
    "lat": 35.7458813,
    "lng": 139.4158575,
    "prefecture": "東京都",
    "lines": [
      "多摩都市モノレール"
    ],
    "operator": "多摩都市モノレール"
  },
  {
    "id": 7571,
    "name": "上古沢",
    "nameEn": "Kami-Kosawa",
    "lat": 34.2575002,
    "lng": 135.5479954,
    "prefecture": "関西地方",
    "lines": [
      "JR/私鉄"
    ],
    "operator": ""
  },
  {
    "id": 1190,
    "name": "上呂",
    "nameEn": "Joro",
    "lat": 35.9108124,
    "lng": 137.2046758,
    "prefecture": "中部地方",
    "lines": [
      "JR/私鉄"
    ],
    "operator": ""
  },
  {
    "id": 8595,
    "name": "上嘉川",
    "nameEn": "Kami-Kagawa",
    "lat": 34.073765,
    "lng": 131.3789708,
    "prefecture": "関西地方",
    "lines": [
      "JR/私鉄"
    ],
    "operator": ""
  },
  {
    "id": 1522,
    "name": "上夜久野",
    "nameEn": "Kami-Yakuno",
    "lat": 35.3417446,
    "lng": 134.931314,
    "prefecture": "兵庫県",
    "lines": [
      "JR/私鉄"
    ],
    "operator": ""
  },
  {
    "id": 7862,
    "name": "上大井",
    "nameEn": "Kami-Oi",
    "lat": 35.3222008,
    "lng": 139.1631854,
    "prefecture": "神奈川県",
    "lines": [
      "JR/私鉄"
    ],
    "operator": ""
  },
  {
    "id": 7834,
    "name": "上大月",
    "nameEn": "Kamiotsuki",
    "lat": 35.6093303,
    "lng": 138.9379864,
    "prefecture": "中部地方",
    "lines": [
      "富士山麓電気鉄道株式会社"
    ],
    "operator": "富士山麓電気鉄道株式会社"
  },
  {
    "id": 6355,
    "name": "上宇和",
    "nameEn": "Kami-Uwa",
    "lat": 33.3799692,
    "lng": 132.5014264,
    "prefecture": "中国・四国地方",
    "lines": [
      "JR四国"
    ],
    "operator": "四国旅客鉄道"
  },
  {
    "id": 5037,
    "name": "上小川",
    "nameEn": "Kami-Ogawa",
    "lat": 36.7190466,
    "lng": 140.3790589,
    "prefecture": "関東地方",
    "lines": [
      "JR/私鉄"
    ],
    "operator": ""
  },
  {
    "id": 1698,
    "name": "上山口",
    "nameEn": "Kami-Yamaguchi",
    "lat": 34.1825922,
    "lng": 131.48498,
    "prefecture": "関西地方",
    "lines": [
      "JR/私鉄"
    ],
    "operator": ""
  },
  {
    "id": 8183,
    "name": "上岡",
    "nameEn": "Kamioka",
    "lat": 32.95646,
    "lng": 131.8621769,
    "prefecture": "九州地方",
    "lines": [
      "JR九州",
      "JR日豊線"
    ],
    "operator": "九州旅客鉄道"
  },
  {
    "id": 5710,
    "name": "上島",
    "nameEn": "Kamijima",
    "lat": 34.7416361,
    "lng": 137.7453317,
    "prefecture": "愛知県",
    "lines": [
      "JR/私鉄"
    ],
    "operator": ""
  },
  {
    "id": 5595,
    "name": "上川内",
    "nameEn": "Kami Sendai",
    "lat": 31.8354412,
    "lng": 130.2925234,
    "prefecture": "九州地方",
    "lines": [
      "肥薩おれんじ鉄道"
    ],
    "operator": "肥薩おれんじ鉄道"
  },
  {
    "id": 1500,
    "name": "上川口",
    "nameEn": "Kamikawaguchi",
    "lat": 35.3295008,
    "lng": 135.0730967,
    "prefecture": "兵庫県",
    "lines": [
      "JR/私鉄"
    ],
    "operator": ""
  },
  {
    "id": 1643,
    "name": "上川立",
    "nameEn": "Kamikawatachi",
    "lat": 34.7250223,
    "lng": 132.7847259,
    "prefecture": "広島県",
    "lines": [
      "JR西日本"
    ],
    "operator": "西日本旅客鉄道"
  },
  {
    "id": 4208,
    "name": "上州一ノ宮",
    "nameEn": "Joshu-Ichinomiya",
    "lat": 36.2530369,
    "lng": 138.8637154,
    "prefecture": "埼玉県",
    "lines": [
      "JR/私鉄"
    ],
    "operator": ""
  },
  {
    "id": 4209,
    "name": "上州七日市",
    "nameEn": "Joshu-Nanokaichi",
    "lat": 36.258802,
    "lng": 138.8748834,
    "prefecture": "埼玉県",
    "lines": [
      "JR/私鉄"
    ],
    "operator": ""
  },
  {
    "id": 4211,
    "name": "上州富岡",
    "nameEn": "Joshu-Tomioka",
    "lat": 36.2604237,
    "lng": 138.8919038,
    "prefecture": "埼玉県",
    "lines": [
      "上信電鉄",
      "上信線"
    ],
    "operator": "上信電鉄"
  },
  {
    "id": 4210,
    "name": "上州新屋",
    "nameEn": "Joshu-Niiya",
    "lat": 36.2559546,
    "lng": 138.9516222,
    "prefecture": "埼玉県",
    "lines": [
      "JR/私鉄"
    ],
    "operator": ""
  },
  {
    "id": 4207,
    "name": "上州福島",
    "nameEn": "Joshu-Fukushima",
    "lat": 36.25629,
    "lng": 138.9296803,
    "prefecture": "埼玉県",
    "lines": [
      "JR/私鉄"
    ],
    "operator": ""
  },
  {
    "id": 976,
    "name": "上市場",
    "nameEn": "Kamiichiba",
    "lat": 35.0501882,
    "lng": 137.7524845,
    "prefecture": "愛知県",
    "lines": [
      "JR/私鉄"
    ],
    "operator": ""
  },
  {
    "id": 251,
    "name": "上強羅",
    "nameEn": "Kami-Gora",
    "lat": 35.2473203,
    "lng": 139.0381966,
    "prefecture": "神奈川県",
    "lines": [
      "箱根登山鉄道"
    ],
    "operator": "箱根登山鉄道"
  },
  {
    "id": 92,
    "name": "上戸",
    "nameEn": "Joko",
    "lat": 37.488246,
    "lng": 140.162763,
    "prefecture": "関東地方",
    "lines": [
      "JR/私鉄"
    ],
    "operator": ""
  },
  {
    "id": 1782,
    "name": "上戸手",
    "nameEn": "Kami-Tode",
    "lat": 34.5514516,
    "lng": 133.282431,
    "prefecture": "広島県",
    "lines": [
      "JR/私鉄"
    ],
    "operator": ""
  },
  {
    "id": 8510,
    "name": "上所",
    "nameEn": "Kamitokoro",
    "lat": 37.9069596,
    "lng": 139.0452418,
    "prefecture": "関東地方",
    "lines": [
      "JR/私鉄"
    ],
    "operator": ""
  },
  {
    "id": 5856,
    "name": "上挙母",
    "nameEn": "Uwa Goromo",
    "lat": 35.0718319,
    "lng": 137.1545186,
    "prefecture": "愛知県",
    "lines": [
      "JR/私鉄"
    ],
    "operator": ""
  },
  {
    "id": 1813,
    "name": "上月",
    "nameEn": "Kozuki",
    "lat": 34.9836369,
    "lng": 134.3226039,
    "prefecture": "兵庫県",
    "lines": [
      "JR/私鉄"
    ],
    "operator": ""
  },
  {
    "id": 1326,
    "name": "上有田",
    "nameEn": "Kami-Arita",
    "lat": 33.1902799,
    "lng": 129.9053775,
    "prefecture": "福岡県",
    "lines": [
      "JR九州",
      "JR佐世保線"
    ],
    "operator": "九州旅客鉄道"
  },
  {
    "id": 4850,
    "name": "上松",
    "nameEn": "Agematsu",
    "lat": 35.7840442,
    "lng": 137.6932571,
    "prefecture": "中部地方",
    "lines": [
      "JR東海",
      "CF 中央本線"
    ],
    "operator": "東海旅客鉄道"
  },
  {
    "id": 5049,
    "name": "上松川",
    "nameEn": "Kami-Matsukawa",
    "lat": 37.7836256,
    "lng": 140.4409589,
    "prefecture": "関東地方",
    "lines": [
      "JR/私鉄"
    ],
    "operator": ""
  },
  {
    "id": 2578,
    "name": "上林",
    "nameEn": "Uebayashi",
    "lat": 34.6955285,
    "lng": 136.1608853,
    "prefecture": "関西地方",
    "lines": [
      "JR/私鉄"
    ],
    "operator": ""
  },
  {
    "id": 1183,
    "name": "上枝",
    "nameEn": "Hozue",
    "lat": 36.1805946,
    "lng": 137.2457363,
    "prefecture": "関東地方",
    "lines": [
      "JR/私鉄"
    ],
    "operator": ""
  },
  {
    "id": 7249,
    "name": "上横須賀",
    "nameEn": "Kamiyokosuka",
    "lat": 34.8301888,
    "lng": 137.0721325,
    "prefecture": "愛知県",
    "lines": [
      "名古屋鉄道"
    ],
    "operator": "名古屋鉄道"
  },
  {
    "id": 5789,
    "name": "上沢",
    "nameEn": "Kamisawa",
    "lat": 34.6735156,
    "lng": 135.1587903,
    "prefecture": "兵庫県",
    "lines": [
      "JR/私鉄"
    ],
    "operator": ""
  },
  {
    "id": 3747,
    "name": "上泉",
    "nameEn": "Kamiizumi",
    "lat": 36.3942753,
    "lng": 139.1065811,
    "prefecture": "関東地方",
    "lines": [
      "JR/私鉄"
    ],
    "operator": ""
  },
  {
    "id": 4600,
    "name": "上浜",
    "nameEn": "Kamihama",
    "lat": 39.1647925,
    "lng": 139.9028642,
    "prefecture": "関東地方",
    "lines": [
      "JR/私鉄"
    ],
    "operator": ""
  },
  {
    "id": 7179,
    "name": "上浦",
    "nameEn": "Kamiura",
    "lat": 33.3990587,
    "lng": 130.6371269,
    "prefecture": "福岡県",
    "lines": [
      "JR/私鉄"
    ],
    "operator": ""
  },
  {
    "id": 8350,
    "name": "上湯沢",
    "nameEn": "Kami-Yuzawa",
    "lat": 39.1343072,
    "lng": 140.4853079,
    "prefecture": "関東地方",
    "lines": [
      "JR/私鉄"
    ],
    "operator": ""
  },
  {
    "id": 2295,
    "name": "上溝",
    "nameEn": "Kamimizo",
    "lat": 35.5577447,
    "lng": 139.3631816,
    "prefecture": "東京都",
    "lines": [
      "JR東日本"
    ],
    "operator": "東日本旅客鉄道"
  },
  {
    "id": 5485,
    "name": "上熊本",
    "nameEn": "Kami-Kumamoto",
    "lat": 32.8178099,
    "lng": 130.6992391,
    "prefecture": "九州地方",
    "lines": [
      "JR九州"
    ],
    "operator": "九州旅客鉄道"
  },
  {
    "id": 959,
    "name": "上片桐",
    "nameEn": "Kami-Katagiri",
    "lat": 35.6175411,
    "lng": 137.9040579,
    "prefecture": "中部地方",
    "lines": [
      "JR/私鉄"
    ],
    "operator": ""
  },
  {
    "id": 4414,
    "name": "上牧",
    "nameEn": "Kammaki",
    "lat": 34.8720798,
    "lng": 135.6617627,
    "prefecture": "京都府",
    "lines": [
      "JR/私鉄"
    ],
    "operator": ""
  },
  {
    "id": 5888,
    "name": "上狛",
    "nameEn": "Kamikoma",
    "lat": 34.7504339,
    "lng": 135.8212435,
    "prefecture": "京都府",
    "lines": [
      "JR西日本"
    ],
    "operator": "西日本旅客鉄道"
  },
  {
    "id": 3264,
    "name": "上田",
    "nameEn": "Ueda",
    "lat": 36.3965984,
    "lng": 138.2495851,
    "prefecture": "関東地方",
    "lines": [
      "JR東日本"
    ],
    "operator": "東日本旅客鉄道"
  },
  {
    "id": 5701,
    "name": "上田原",
    "nameEn": "Uedahara",
    "lat": 36.3904995,
    "lng": 138.2216757,
    "prefecture": "関東地方",
    "lines": [
      "上田電鉄",
      "別所線"
    ],
    "operator": "上田電鉄"
  },
  {
    "id": 7915,
    "name": "上田浦",
    "nameEn": "Kami-Tanoura",
    "lat": 32.3929139,
    "lng": 130.5184914,
    "prefecture": "九州地方",
    "lines": [
      "JR/私鉄"
    ],
    "operator": ""
  },
  {
    "id": 8469,
    "name": "上相浦",
    "nameEn": "Kami-Ainoura",
    "lat": 33.1955002,
    "lng": 129.6705261,
    "prefecture": "中国・四国地方",
    "lines": [
      "松浦鉄道",
      "松浦鉄道西九州線"
    ],
    "operator": "松浦鉄道"
  },
  {
    "id": 1755,
    "name": "上石見",
    "nameEn": "Kamiiwami",
    "lat": 35.1125466,
    "lng": 133.3512379,
    "prefecture": "中部地方",
    "lines": [
      "JR/私鉄"
    ],
    "operator": ""
  },
  {
    "id": 5634,
    "name": "上社",
    "nameEn": "Kamiyashiro",
    "lat": 35.1735138,
    "lng": 137.0066824,
    "prefecture": "愛知県",
    "lines": [
      "名古屋市交通局"
    ],
    "operator": "名古屋市交通局"
  },
  {
    "id": 4174,
    "name": "上神梅",
    "nameEn": "Kami-Kambai",
    "lat": 36.4700531,
    "lng": 139.2576786,
    "prefecture": "関東地方",
    "lines": [
      "JR/私鉄"
    ],
    "operator": ""
  },
  {
    "id": 6170,
    "name": "上穂波",
    "nameEn": "Kami-Honami",
    "lat": 33.5670759,
    "lng": 130.6455144,
    "prefecture": "福岡県",
    "lines": [
      "JR/私鉄"
    ],
    "operator": ""
  },
  {
    "id": 5572,
    "name": "上臼杵",
    "nameEn": "Kami-Usuki",
    "lat": 33.1125465,
    "lng": 131.7929256,
    "prefecture": "中国・四国地方",
    "lines": [
      "JR九州"
    ],
    "operator": "九州旅客鉄道"
  },
  {
    "id": 1744,
    "name": "上菅",
    "nameEn": "Kamisuge",
    "lat": 35.1937828,
    "lng": 133.3415741,
    "prefecture": "中部地方",
    "lines": [
      "JR/私鉄"
    ],
    "operator": ""
  },
  {
    "id": 4590,
    "name": "上菅谷",
    "nameEn": "Kami-Sugaya",
    "lat": 36.4554063,
    "lng": 140.4924412,
    "prefecture": "関東地方",
    "lines": [
      "JR/私鉄"
    ],
    "operator": ""
  },
  {
    "id": 4824,
    "name": "上諏訪",
    "nameEn": "Kami-Suwa",
    "lat": 36.0466419,
    "lng": 138.1162602,
    "prefecture": "関東地方",
    "lines": [
      "JR/私鉄"
    ],
    "operator": ""
  },
  {
    "id": 5461,
    "name": "上豊田",
    "nameEn": "Kami Toyota",
    "lat": 35.1165836,
    "lng": 137.1546507,
    "prefecture": "愛知県",
    "lines": [
      "名古屋鉄道"
    ],
    "operator": "名古屋鉄道"
  },
  {
    "id": 1450,
    "name": "上道",
    "nameEn": "Jyoto",
    "lat": 34.6994525,
    "lng": 134.0205696,
    "prefecture": "関西地方",
    "lines": [
      "JR西日本"
    ],
    "operator": "西日本旅客鉄道"
  },
  {
    "id": 1805,
    "name": "上道",
    "nameEn": "Agarimichi",
    "lat": 35.5314686,
    "lng": 133.2305889,
    "prefecture": "中部地方",
    "lines": [
      "JR西日本",
      "境線"
    ],
    "operator": "JR 西日本旅客鉄道"
  },
  {
    "id": 3752,
    "name": "上郡",
    "nameEn": "Kamigōri",
    "lat": 34.8660983,
    "lng": 134.3533789,
    "prefecture": "兵庫県",
    "lines": [
      "JR/私鉄"
    ],
    "operator": ""
  },
  {
    "id": 8599,
    "name": "上郷",
    "nameEn": "Kamigo",
    "lat": 34.1163523,
    "lng": 131.401819,
    "prefecture": "関西地方",
    "lines": [
      "JR/私鉄"
    ],
    "operator": ""
  },
  {
    "id": 4830,
    "name": "上野原",
    "nameEn": "Uenohara",
    "lat": 35.6188935,
    "lng": 139.1160455,
    "prefecture": "神奈川県",
    "lines": [
      "JR東日本"
    ],
    "operator": "JR東日本"
  },
  {
    "id": 109,
    "name": "上野尻",
    "nameEn": "Kami-Nojiri",
    "lat": 37.6248328,
    "lng": 139.63409,
    "prefecture": "関東地方",
    "lines": [
      "JR/私鉄"
    ],
    "operator": ""
  },
  {
    "id": 2581,
    "name": "上野市",
    "nameEn": "Uenoshi",
    "lat": 34.7677008,
    "lng": 136.1297647,
    "prefecture": "関西地方",
    "lines": [
      "JR/私鉄"
    ],
    "operator": ""
  },
  {
    "id": 2556,
    "name": "上野部",
    "nameEn": "Kaminobe",
    "lat": 34.8474474,
    "lng": 137.8299713,
    "prefecture": "関西地方",
    "lines": [
      "JR/私鉄"
    ],
    "operator": ""
  },
  {
    "id": 7279,
    "name": "上野間",
    "nameEn": "Kami Noma",
    "lat": 34.8074962,
    "lng": 136.8670844,
    "prefecture": "愛知県",
    "lines": [
      "名古屋鉄道"
    ],
    "operator": "名古屋鉄道"
  },
  {
    "id": 6472,
    "name": "上金田",
    "nameEn": "Kami-Kanada",
    "lat": 33.6723668,
    "lng": 130.7897278,
    "prefecture": "福岡県",
    "lines": [
      "平成筑豊鉄道",
      "平成筑豊鉄道伊田線"
    ],
    "operator": "平成筑豊鉄道"
  },
  {
    "id": 130,
    "name": "上飯島",
    "nameEn": "Kami-Iijima",
    "lat": 39.778903,
    "lng": 140.068609,
    "prefecture": "関東地方",
    "lines": [
      "JR/私鉄"
    ],
    "operator": ""
  },
  {
    "id": 1199,
    "name": "上麻生",
    "nameEn": "Kamiaso",
    "lat": 35.5413814,
    "lng": 137.119151,
    "prefecture": "中部地方",
    "lines": [
      "JR/私鉄"
    ],
    "operator": ""
  },
  {
    "id": 1759,
    "name": "下久野",
    "nameEn": "Shimokuno",
    "lat": 35.2648144,
    "lng": 132.9922714,
    "prefecture": "中部地方",
    "lines": [
      "JR/私鉄"
    ],
    "operator": ""
  },
  {
    "id": 2234,
    "name": "下之郷",
    "nameEn": "Shimonogo",
    "lat": 36.363197,
    "lng": 138.2171836,
    "prefecture": "関東地方",
    "lines": [
      "JR/私鉄"
    ],
    "operator": ""
  },
  {
    "id": 8556,
    "name": "下井阪",
    "nameEn": "Shimoisaka",
    "lat": 34.2620536,
    "lng": 135.340544,
    "prefecture": "兵庫県",
    "lines": [
      "JR/私鉄"
    ],
    "operator": ""
  },
  {
    "id": 4219,
    "name": "下仁田",
    "nameEn": "Shimonita",
    "lat": 36.2104653,
    "lng": 138.7864082,
    "prefecture": "埼玉県",
    "lines": [
      "JR/私鉄"
    ],
    "operator": ""
  },
  {
    "id": 6468,
    "name": "下伊田",
    "nameEn": "Shimo Ita",
    "lat": 33.6519859,
    "lng": 130.8069727,
    "prefecture": "福岡県",
    "lines": [
      "平成筑豊鉄道",
      "平成筑豊鉄道伊田線"
    ],
    "operator": "平成筑豊鉄道"
  },
  {
    "id": 1956,
    "name": "下兵庫",
    "nameEn": "Shimo-Hyogo",
    "lat": 34.3226895,
    "lng": 135.6348319,
    "prefecture": "関西地方",
    "lines": [
      "JR/私鉄"
    ],
    "operator": ""
  },
  {
    "id": 781,
    "name": "下兵庫こうふく",
    "nameEn": "Shimohyogo-Kofuku",
    "lat": 36.1701167,
    "lng": 136.2025396,
    "prefecture": "関東地方",
    "lines": [
      "JR/私鉄"
    ],
    "operator": ""
  },
  {
    "id": 7824,
    "name": "下切",
    "nameEn": "Shimogiri",
    "lat": 35.3934384,
    "lng": 137.0637962,
    "prefecture": "愛知県",
    "lines": [
      "JR東海"
    ],
    "operator": "東海旅客鉄道"
  },
  {
    "id": 1547,
    "name": "下北条",
    "nameEn": "Shimohōjō",
    "lat": 35.4820266,
    "lng": 133.8087031,
    "prefecture": "中部地方",
    "lines": [
      "JR/私鉄"
    ],
    "operator": ""
  },
  {
    "id": 7570,
    "name": "下古沢",
    "nameEn": "Shimo-Kosawa",
    "lat": 34.2665086,
    "lng": 135.553091,
    "prefecture": "関西地方",
    "lines": [
      "JR/私鉄"
    ],
    "operator": ""
  },
  {
    "id": 7846,
    "name": "下吉田",
    "nameEn": "Shimoyoshida",
    "lat": 35.4979775,
    "lng": 138.8036172,
    "prefecture": "中部地方",
    "lines": [
      "富士山麓電気鉄道株式会社"
    ],
    "operator": "富士山麓電気鉄道株式会社"
  },
  {
    "id": 1198,
    "name": "下呂",
    "nameEn": "Gero",
    "lat": 35.8057842,
    "lng": 137.2396173,
    "prefecture": "中部地方",
    "lines": [
      "JR/私鉄"
    ],
    "operator": ""
  },
  {
    "id": 1651,
    "name": "下和知",
    "nameEn": "Shimo-Wachi",
    "lat": 34.7980562,
    "lng": 132.9255274,
    "prefecture": "広島県",
    "lines": [
      "JR西日本"
    ],
    "operator": "西日本旅客鉄道"
  },
  {
    "id": 1997,
    "name": "下唯野",
    "nameEn": "Shimo-Yuino",
    "lat": 35.9740208,
    "lng": 136.5604723,
    "prefecture": "中部地方",
    "lines": [
      "JR西日本"
    ],
    "operator": "西日本旅客鉄道"
  },
  {
    "id": 7828,
    "name": "下土狩",
    "nameEn": "Shimo-Togari",
    "lat": 35.1290633,
    "lng": 138.8951575,
    "prefecture": "中部地方",
    "lines": [
      "JR/私鉄"
    ],
    "operator": ""
  },
  {
    "id": 3972,
    "name": "下地",
    "nameEn": "Shimoji",
    "lat": 34.7808294,
    "lng": 137.3705964,
    "prefecture": "愛知県",
    "lines": [
      "JR/私鉄"
    ],
    "operator": ""
  },
  {
    "id": 1517,
    "name": "下夜久野",
    "nameEn": "Shimo-Yakuno",
    "lat": 35.3199199,
    "lng": 134.9985002,
    "prefecture": "兵庫県",
    "lines": [
      "JR/私鉄"
    ],
    "operator": ""
  },
  {
    "id": 6353,
    "name": "下宇和",
    "nameEn": "Shimo-Uwa",
    "lat": 33.3494645,
    "lng": 132.5312137,
    "prefecture": "中国・四国地方",
    "lines": [
      "JR四国"
    ],
    "operator": "四国旅客鉄道"
  },
  {
    "id": 5031,
    "name": "下小川",
    "nameEn": "Shimo-Ogawa",
    "lat": 36.6690357,
    "lng": 140.3870248,
    "prefecture": "関東地方",
    "lines": [
      "JR/私鉄"
    ],
    "operator": ""
  },
  {
    "id": 1098,
    "name": "下山",
    "nameEn": "Shimoyama",
    "lat": 33.4582931,
    "lng": 133.9481018,
    "prefecture": "中国・四国地方",
    "lines": [
      "JR/私鉄"
    ],
    "operator": ""
  },
  {
    "id": 1523,
    "name": "下山",
    "nameEn": "Shimoyama",
    "lat": 35.2124712,
    "lng": 135.4225002,
    "prefecture": "兵庫県",
    "lines": [
      "JR/私鉄"
    ],
    "operator": ""
  },
  {
    "id": 6641,
    "name": "下山口",
    "nameEn": "Shimo-Yamaguchi",
    "lat": 35.7795178,
    "lng": 139.4414607,
    "prefecture": "東京都",
    "lines": [
      "西武鉄道"
    ],
    "operator": "西武鉄道"
  },
  {
    "id": 946,
    "name": "下山村",
    "nameEn": "Shimoyamamura",
    "lat": 35.5043297,
    "lng": 137.8393793,
    "prefecture": "中部地方",
    "lines": [
      "JR/私鉄"
    ],
    "operator": ""
  },
  {
    "id": 998,
    "name": "下島",
    "nameEn": "Shimojima",
    "lat": 35.8128248,
    "lng": 137.9400987,
    "prefecture": "中部地方",
    "lines": [
      "JR/私鉄"
    ],
    "operator": ""
  },
  {
    "id": 4880,
    "name": "下島",
    "nameEn": "Shimojima",
    "lat": 36.2063137,
    "lng": 137.8718693,
    "prefecture": "関東地方",
    "lines": [
      "JR/私鉄"
    ],
    "operator": ""
  },
  {
    "id": 989,
    "name": "下川合",
    "nameEn": "Shimo-Kawai",
    "lat": 35.0692294,
    "lng": 137.7862474,
    "prefecture": "愛知県",
    "lines": [
      "JR/私鉄"
    ],
    "operator": ""
  },
  {
    "id": 1784,
    "name": "下川辺",
    "nameEn": "Shimokawabe",
    "lat": 34.554579,
    "lng": 133.2049806,
    "prefecture": "広島県",
    "lines": [
      "JR/私鉄"
    ],
    "operator": ""
  },
  {
    "id": 1549,
    "name": "下市",
    "nameEn": "Shimoichi",
    "lat": 35.5187494,
    "lng": 133.5662895,
    "prefecture": "中部地方",
    "lines": [
      "JR/私鉄"
    ],
    "operator": ""
  },
  {
    "id": 6410,
    "name": "下市口",
    "nameEn": "Shimoichiguchi",
    "lat": 34.3840535,
    "lng": 135.7870164,
    "prefecture": "関西地方",
    "lines": [
      "JR/私鉄"
    ],
    "operator": ""
  },
  {
    "id": 1016,
    "name": "下市田",
    "nameEn": "Shimo-Ichida",
    "lat": 35.5441049,
    "lng": 137.8762812,
    "prefecture": "中部地方",
    "lines": [
      "JR/私鉄"
    ],
    "operator": ""
  },
  {
    "id": 988,
    "name": "下平",
    "nameEn": "Shimodaira",
    "lat": 35.5723582,
    "lng": 137.8958263,
    "prefecture": "中部地方",
    "lines": [
      "JR/私鉄"
    ],
    "operator": ""
  },
  {
    "id": 1180,
    "name": "下庄",
    "nameEn": "Shimonoshō",
    "lat": 34.8145769,
    "lng": 136.479641,
    "prefecture": "関西地方",
    "lines": [
      "JR/私鉄"
    ],
    "operator": ""
  },
  {
    "id": 4904,
    "name": "下府",
    "nameEn": "Shimokō",
    "lat": 34.9272248,
    "lng": 132.1105635,
    "prefecture": "広島県",
    "lines": [
      "JR/私鉄"
    ],
    "operator": ""
  },
  {
    "id": 789,
    "name": "下志比",
    "nameEn": "Shimoshii",
    "lat": 36.0907156,
    "lng": 136.3362477,
    "prefecture": "関東地方",
    "lines": [
      "JR/私鉄"
    ],
    "operator": ""
  },
  {
    "id": 4885,
    "name": "下新",
    "nameEn": "Shimonii",
    "lat": 36.2251053,
    "lng": 137.9222513,
    "prefecture": "関東地方",
    "lines": [
      "JR/私鉄"
    ],
    "operator": ""
  },
  {
    "id": 4911,
    "name": "下新田",
    "nameEn": "Shimo-Shinden",
    "lat": 36.4076202,
    "lng": 139.31512,
    "prefecture": "関東地方",
    "lines": [
      "JR/私鉄"
    ],
    "operator": ""
  },
  {
    "id": 7867,
    "name": "下曽我",
    "nameEn": "Shimo-Soga",
    "lat": 35.3037648,
    "lng": 139.1831189,
    "prefecture": "神奈川県",
    "lines": [
      "JR/私鉄"
    ],
    "operator": ""
  },
  {
    "id": 5490,
    "name": "下曽根",
    "nameEn": "Shimosone",
    "lat": 33.8323559,
    "lng": 130.9347186,
    "prefecture": "福岡県",
    "lines": [
      "JR九州",
      "JR日豊線"
    ],
    "operator": "九州旅客鉄道"
  },
  {
    "id": 1964,
    "name": "下松",
    "nameEn": "Shimomatsu",
    "lat": 34.4574991,
    "lng": 135.3968838,
    "prefecture": "大阪府",
    "lines": [
      "JR/私鉄"
    ],
    "operator": ""
  },
  {
    "id": 8459,
    "name": "下松",
    "nameEn": "Kudamatsu",
    "lat": 34.0088727,
    "lng": 131.867947,
    "prefecture": "関西地方",
    "lines": [
      "JR/私鉄"
    ],
    "operator": ""
  },
  {
    "id": 1188,
    "name": "下油井",
    "nameEn": "Shimo-Yui",
    "lat": 35.6330505,
    "lng": 137.1830446,
    "prefecture": "中部地方",
    "lines": [
      "JR/私鉄"
    ],
    "operator": ""
  },
  {
    "id": 2881,
    "name": "下泉",
    "nameEn": "Shimoizumi",
    "lat": 35.0219767,
    "lng": 138.0900492,
    "prefecture": "中部地方",
    "lines": [
      "大井川鐵道"
    ],
    "operator": "大井川鐵道"
  },
  {
    "id": 1940,
    "name": "下津",
    "nameEn": "Shimotsu",
    "lat": 34.1086917,
    "lng": 135.1452054,
    "prefecture": "関西地方",
    "lines": [
      "JR/私鉄"
    ],
    "operator": ""
  },
  {
    "id": 5147,
    "name": "下浜",
    "nameEn": "Shimohama",
    "lat": 39.618581,
    "lng": 140.0644867,
    "prefecture": "関東地方",
    "lines": [
      "JR/私鉄"
    ],
    "operator": ""
  },
  {
    "id": 2617,
    "name": "下深谷",
    "nameEn": "Shimo-Fukaya",
    "lat": 35.0964536,
    "lng": 136.6614883,
    "prefecture": "愛知県",
    "lines": [
      "養老鉄道"
    ],
    "operator": "養老鉄道"
  },
  {
    "id": 2302,
    "name": "下溝",
    "nameEn": "Shimomizo",
    "lat": 35.5182341,
    "lng": 139.3805489,
    "prefecture": "東京都",
    "lines": [
      "JR東日本"
    ],
    "operator": "東日本旅客鉄道"
  },
  {
    "id": 6960,
    "name": "下滝",
    "nameEn": "Shimotaki",
    "lat": 35.087793,
    "lng": 135.0942983,
    "prefecture": "兵庫県",
    "lines": [
      "JR/私鉄"
    ],
    "operator": ""
  },
  {
    "id": 6377,
    "name": "下灘",
    "nameEn": "Shimonada",
    "lat": 33.6554175,
    "lng": 132.5894116,
    "prefecture": "中国・四国地方",
    "lines": [
      "JR四国"
    ],
    "operator": "四国旅客鉄道"
  },
  {
    "id": 8373,
    "name": "下狛",
    "nameEn": "Shimokoma",
    "lat": 34.7805919,
    "lng": 135.7884561,
    "prefecture": "京都府",
    "lines": [
      "JR/私鉄"
    ],
    "operator": ""
  },
  {
    "id": 4592,
    "name": "下菅谷",
    "nameEn": "Shimo-Sugaya",
    "lat": 36.435349,
    "lng": 140.4940613,
    "prefecture": "関東地方",
    "lines": [
      "JR/私鉄"
    ],
    "operator": ""
  },
  {
    "id": 4823,
    "name": "下諏訪",
    "nameEn": "Shimo-Suwa",
    "lat": 36.0720188,
    "lng": 138.0848582,
    "prefecture": "関東地方",
    "lines": [
      "JR/私鉄"
    ],
    "operator": ""
  },
  {
    "id": 4874,
    "name": "下部温泉",
    "nameEn": "Shimobe-onsen",
    "lat": 35.4255804,
    "lng": 138.4722161,
    "prefecture": "中部地方",
    "lines": [
      "JR/私鉄"
    ],
    "operator": ""
  },
  {
    "id": 8216,
    "name": "下里",
    "nameEn": "Shimosato",
    "lat": 33.5823961,
    "lng": 135.9223635,
    "prefecture": "中国・四国地方",
    "lines": [
      "JR/私鉄"
    ],
    "operator": ""
  },
  {
    "id": 2627,
    "name": "下野代",
    "nameEn": "Shimo-Noshiro",
    "lat": 35.1159224,
    "lng": 136.6471675,
    "prefecture": "愛知県",
    "lines": [
      "養老鉄道"
    ],
    "operator": "養老鉄道"
  },
  {
    "id": 118,
    "name": "下野宮",
    "nameEn": "Shimonomiya",
    "lat": 36.8157926,
    "lng": 140.3752434,
    "prefecture": "関東地方",
    "lines": [
      "JR/私鉄"
    ],
    "operator": ""
  },
  {
    "id": 5013,
    "name": "下野花岡",
    "nameEn": "Shimotsuke-Hanaoka",
    "lat": 36.6499587,
    "lng": 140.0085667,
    "prefecture": "関東地方",
    "lines": [
      "JR/私鉄"
    ],
    "operator": ""
  },
  {
    "id": 5510,
    "name": "下関",
    "nameEn": "Shimonoseki",
    "lat": 33.9493851,
    "lng": 130.9217895,
    "prefecture": "福岡県",
    "lines": [
      "JR/私鉄"
    ],
    "operator": ""
  },
  {
    "id": 5708,
    "name": "下飯田",
    "nameEn": "Shimoiida",
    "lat": 35.4034432,
    "lng": 139.4832081,
    "prefecture": "神奈川県",
    "lines": [
      "横浜市交通局"
    ],
    "operator": "横浜市交通局"
  },
  {
    "id": 3729,
    "name": "下館",
    "nameEn": "Shimodate",
    "lat": 36.3041716,
    "lng": 139.9787036,
    "prefecture": "関東地方",
    "lines": [
      "JR東日本"
    ],
    "operator": "東日本旅客鉄道;関東鉄道;真岡鐵道"
  },
  {
    "id": 2853,
    "name": "下館二高前",
    "nameEn": "Shimodate-Nikomae",
    "lat": 36.3193341,
    "lng": 139.9720269,
    "prefecture": "関東地方",
    "lines": [
      "真岡鐵道"
    ],
    "operator": "真岡鐵道"
  },
  {
    "id": 5003,
    "name": "下鴨生",
    "nameEn": "Shimo-Kamoo",
    "lat": 33.6146731,
    "lng": 130.7286022,
    "prefecture": "福岡県",
    "lines": [
      "JR九州",
      "JR後藤寺線"
    ],
    "operator": "九州旅客鉄道"
  },
  {
    "id": 1194,
    "name": "下麻生",
    "nameEn": "Shimoasō",
    "lat": 35.514927,
    "lng": 137.087028,
    "prefecture": "中部地方",
    "lines": [
      "JR/私鉄"
    ],
    "operator": ""
  },
  {
    "id": 7419,
    "name": "不破一色",
    "nameEn": "Fuwa-Ishiki",
    "lat": 35.3332265,
    "lng": 136.7220258,
    "prefecture": "愛知県",
    "lines": [
      "名古屋鉄道"
    ],
    "operator": "名古屋鉄道"
  },
  {
    "id": 8519,
    "name": "与謝野町",
    "nameEn": "Yosano",
    "lat": 35.5433299,
    "lng": 135.1262845,
    "prefecture": "兵庫県",
    "lines": [
      "京都丹後鉄道"
    ],
    "operator": "京都丹後鉄道"
  },
  {
    "id": 5520,
    "name": "並河",
    "nameEn": "Namikawa",
    "lat": 35.0322673,
    "lng": 135.5550724,
    "prefecture": "京都府",
    "lines": [
      "JR西日本"
    ],
    "operator": "西日本旅客鉄道"
  },
  {
    "id": 1639,
    "name": "中三田",
    "nameEn": "Naka-Mita",
    "lat": 34.5131232,
    "lng": 132.6087379,
    "prefecture": "広島県",
    "lines": [
      "JR西日本"
    ],
    "operator": "西日本旅客鉄道"
  },
  {
    "id": 7596,
    "name": "中之郷",
    "nameEn": "Nakanogou",
    "lat": 34.4797055,
    "lng": 136.8455507,
    "prefecture": "関西地方",
    "lines": [
      "JR/私鉄"
    ],
    "operator": ""
  },
  {
    "id": 955,
    "name": "中井侍",
    "nameEn": "Nakaisamurai",
    "lat": 35.2358605,
    "lng": 137.8348073,
    "prefecture": "中部地方",
    "lines": [
      "JR/私鉄"
    ],
    "operator": ""
  },
  {
    "id": 2179,
    "name": "中佐世保",
    "nameEn": "Naka-Sasebo",
    "lat": 33.1721971,
    "lng": 129.7223318,
    "prefecture": "中国・四国地方",
    "lines": [
      "JR/私鉄"
    ],
    "operator": ""
  },
  {
    "id": 896,
    "name": "中佐都",
    "nameEn": "Nakasato",
    "lat": 36.2809948,
    "lng": 138.4533535,
    "prefecture": "関東地方",
    "lines": [
      "JR/私鉄"
    ],
    "operator": ""
  },
  {
    "id": 7683,
    "name": "中八木",
    "nameEn": "Nakayagi",
    "lat": 34.6708194,
    "lng": 134.9361473,
    "prefecture": "兵庫県",
    "lines": [
      "JR/私鉄"
    ],
    "operator": ""
  },
  {
    "id": 2603,
    "name": "中公園",
    "nameEn": "Naka Koen",
    "lat": 34.6733088,
    "lng": 135.2074848,
    "prefecture": "兵庫県",
    "lines": [
      "神戸新交通",
      "ポートライナー"
    ],
    "operator": "神戸新交通"
  },
  {
    "id": 7514,
    "name": "中判田",
    "nameEn": "Nakahanda",
    "lat": 33.1641047,
    "lng": 131.6388139,
    "prefecture": "中国・四国地方",
    "lines": [
      "JR九州",
      "JR豊肥本線"
    ],
    "operator": "九州旅客鉄道"
  },
  {
    "id": 6688,
    "name": "中原",
    "nameEn": "Nakabaru",
    "lat": 33.3464862,
    "lng": 130.4405342,
    "prefecture": "福岡県",
    "lines": [
      "JR九州"
    ],
    "operator": "九州旅客鉄道"
  },
  {
    "id": 1355,
    "name": "中名",
    "nameEn": "Nakamyo",
    "lat": 31.3937383,
    "lng": 130.5350362,
    "prefecture": "九州地方",
    "lines": [
      "JR九州",
      "JR指宿枕崎線"
    ],
    "operator": "九州旅客鉄道"
  },
  {
    "id": 1830,
    "name": "中国勝山",
    "nameEn": "Chugoku-Katsuyama",
    "lat": 35.0804497,
    "lng": 133.6946943,
    "prefecture": "中部地方",
    "lines": [
      "JR西日本"
    ],
    "operator": "西日本旅客鉄道"
  },
  {
    "id": 4083,
    "name": "中埠頭",
    "nameEn": "Naka Futo",
    "lat": 34.6694622,
    "lng": 135.2171403,
    "prefecture": "兵庫県",
    "lines": [
      "JR/私鉄"
    ],
    "operator": ""
  },
  {
    "id": 2235,
    "name": "中塩田",
    "nameEn": "Naka-Shioda",
    "lat": 36.3631117,
    "lng": 138.2047187,
    "prefecture": "関東地方",
    "lines": [
      "JR/私鉄"
    ],
    "operator": ""
  },
  {
    "id": 7188,
    "name": "中多久",
    "nameEn": "Naka-Taku",
    "lat": 33.2832982,
    "lng": 130.1123688,
    "prefecture": "福岡県",
    "lines": [
      "JR九州",
      "JR唐津線"
    ],
    "operator": "九州旅客鉄道"
  },
  {
    "id": 3746,
    "name": "中央前橋",
    "nameEn": "Chuo-Maebashi",
    "lat": 36.3911832,
    "lng": 139.0749235,
    "prefecture": "関東地方",
    "lines": [
      "JR/私鉄"
    ],
    "operator": ""
  },
  {
    "id": 5274,
    "name": "中央大学・明星大学",
    "nameEn": "Chuo-Daigaku･Meisei-Daigaku",
    "lat": 35.6418831,
    "lng": 139.4087644,
    "prefecture": "東京都",
    "lines": [
      "多摩都市モノレール"
    ],
    "operator": "多摩都市モノレール"
  },
  {
    "id": 5816,
    "name": "中央市場前",
    "nameEn": "Chūōichibamae",
    "lat": 34.6661531,
    "lng": 135.1758811,
    "prefecture": "兵庫県",
    "lines": [
      "JR/私鉄"
    ],
    "operator": ""
  },
  {
    "id": 1737,
    "name": "中央林間",
    "nameEn": "Chuo-rinkan",
    "lat": 35.5075814,
    "lng": 139.4445901,
    "prefecture": "東京都",
    "lines": [
      "東京急行電鉄"
    ],
    "operator": "東京急行電鉄"
  },
  {
    "id": 1552,
    "name": "中山口",
    "nameEn": "Nakayamaguchi",
    "lat": 35.5207061,
    "lng": 133.5902338,
    "prefecture": "中部地方",
    "lines": [
      "JR/私鉄"
    ],
    "operator": ""
  },
  {
    "id": 94,
    "name": "中山宿",
    "nameEn": "Nakayamajuku",
    "lat": 37.4957047,
    "lng": 140.2194585,
    "prefecture": "関東地方",
    "lines": [
      "JR/私鉄"
    ],
    "operator": ""
  },
  {
    "id": 6963,
    "name": "中山寺",
    "nameEn": "Nakayamadera",
    "lat": 34.8166649,
    "lng": 135.3738711,
    "prefecture": "兵庫県",
    "lines": [
      "JR西日本",
      "福知山線（JR宝塚線）"
    ],
    "operator": "JR西日本"
  },
  {
    "id": 2423,
    "name": "中山観音",
    "nameEn": "Nakayama-kannon",
    "lat": 34.8196261,
    "lng": 135.3692889,
    "prefecture": "兵庫県",
    "lines": [
      "JR/私鉄"
    ],
    "operator": ""
  },
  {
    "id": 1253,
    "name": "中山香",
    "nameEn": "Naka-Yamaga",
    "lat": 33.4486757,
    "lng": 131.5057609,
    "prefecture": "中国・四国地方",
    "lines": [
      "JR九州",
      "JR日豊線"
    ],
    "operator": "九州旅客鉄道"
  },
  {
    "id": 2762,
    "name": "中岡崎",
    "nameEn": "Naka-Okazaki",
    "lat": 34.9558704,
    "lng": 137.1526308,
    "prefecture": "愛知県",
    "lines": [
      "愛知環状鉄道",
      "愛知環状鉄道線"
    ],
    "operator": "愛知環状鉄道"
  },
  {
    "id": 7618,
    "name": "中川原",
    "nameEn": "Nakagawara",
    "lat": 34.9693506,
    "lng": 136.6032269,
    "prefecture": "愛知県",
    "lines": [
      "JR/私鉄"
    ],
    "operator": ""
  },
  {
    "id": 1200,
    "name": "中川辺",
    "nameEn": "Nakakawabe",
    "lat": 35.4870526,
    "lng": 137.0651236,
    "prefecture": "愛知県",
    "lines": [
      "JR/私鉄"
    ],
    "operator": ""
  },
  {
    "id": 4934,
    "name": "中庄",
    "nameEn": "Nakashō",
    "lat": 34.6263098,
    "lng": 133.8077661,
    "prefecture": "関西地方",
    "lines": [
      "JR/私鉄"
    ],
    "operator": ""
  },
  {
    "id": 248,
    "name": "中強羅",
    "nameEn": "Naka Gōra",
    "lat": 35.2481695,
    "lng": 139.0406145,
    "prefecture": "神奈川県",
    "lines": [
      "箱根登山鉄道"
    ],
    "operator": "箱根登山鉄道"
  },
  {
    "id": 8002,
    "name": "中村",
    "nameEn": "Nakamura",
    "lat": 32.9843748,
    "lng": 132.9440278,
    "prefecture": "九州地方",
    "lines": [
      "土佐くろしお鉄道"
    ],
    "operator": "土佐くろしお鉄道"
  },
  {
    "id": 5142,
    "name": "中条",
    "nameEn": "Nakajo",
    "lat": 38.0500723,
    "lng": 139.3980637,
    "prefecture": "関東地方",
    "lines": [
      "JR/私鉄"
    ],
    "operator": ""
  },
  {
    "id": 2523,
    "name": "中松",
    "nameEn": "Nakamatsu",
    "lat": 32.8274526,
    "lng": 131.0535291,
    "prefecture": "九州地方",
    "lines": [
      "南阿蘇鉄道",
      "南阿蘇鉄道高森線"
    ],
    "operator": "南阿蘇鉄道"
  },
  {
    "id": 7727,
    "name": "中松江",
    "nameEn": "Nakamatsue",
    "lat": 34.2486859,
    "lng": 135.1330905,
    "prefecture": "兵庫県",
    "lines": [
      "JR/私鉄"
    ],
    "operator": ""
  },
  {
    "id": 4662,
    "name": "中根",
    "nameEn": "Nakane",
    "lat": 36.3673904,
    "lng": 140.5623744,
    "prefecture": "関東地方",
    "lines": [
      "JR/私鉄"
    ],
    "operator": ""
  },
  {
    "id": 5874,
    "name": "中水野",
    "nameEn": "Nakamizuno",
    "lat": 35.2503565,
    "lng": 137.0720172,
    "prefecture": "愛知県",
    "lines": [
      "愛知環状鉄道",
      "愛知環状鉄道線"
    ],
    "operator": "愛知環状鉄道"
  },
  {
    "id": 5751,
    "name": "中河原",
    "nameEn": "Nakagawara",
    "lat": 35.6596099,
    "lng": 139.4579544,
    "prefecture": "東京都",
    "lines": [
      "京王電鉄"
    ],
    "operator": "京王電鉄"
  },
  {
    "id": 6477,
    "name": "中泉",
    "nameEn": "Nakaizumi",
    "lat": 33.7210506,
    "lng": 130.7423195,
    "prefecture": "福岡県",
    "lines": [
      "平成筑豊鉄道",
      "平成筑豊鉄道伊田線"
    ],
    "operator": "平成筑豊鉄道"
  },
  {
    "id": 1249,
    "name": "中津",
    "nameEn": "Nakatsu",
    "lat": 33.5991951,
    "lng": 131.1908891,
    "prefecture": "福岡県",
    "lines": [
      "JR九州",
      "JR日豊線"
    ],
    "operator": "九州旅客鉄道"
  },
  {
    "id": 4860,
    "name": "中津川",
    "nameEn": "Nakatsugawa",
    "lat": 35.500617,
    "lng": 137.502847,
    "prefecture": "中部地方",
    "lines": [
      "JR/私鉄"
    ],
    "operator": ""
  },
  {
    "id": 1796,
    "name": "中浜",
    "nameEn": "Nakahama",
    "lat": 35.5068911,
    "lng": 133.2447123,
    "prefecture": "中部地方",
    "lines": [
      "JR/私鉄"
    ],
    "operator": ""
  },
  {
    "id": 5128,
    "name": "中浦",
    "nameEn": "Nakaura",
    "lat": 37.912254,
    "lng": 139.3026294,
    "prefecture": "関東地方",
    "lines": [
      "JR/私鉄"
    ],
    "operator": ""
  },
  {
    "id": 1116,
    "name": "中瀬古",
    "nameEn": "Nakaseko",
    "lat": 34.81247,
    "lng": 136.5430633,
    "prefecture": "関西地方",
    "lines": [
      "JR/私鉄"
    ],
    "operator": ""
  },
  {
    "id": 2333,
    "name": "中田",
    "nameEn": "Chūden",
    "lat": 34.0103853,
    "lng": 134.569601,
    "prefecture": "関西地方",
    "lines": [
      "JR四国"
    ],
    "operator": "四国旅客鉄道"
  },
  {
    "id": 2167,
    "name": "中田平",
    "nameEn": "Nakatabira",
    "lat": 33.3557199,
    "lng": 129.6109509,
    "prefecture": "中国・四国地方",
    "lines": [
      "JR/私鉄"
    ],
    "operator": ""
  },
  {
    "id": 1794,
    "name": "中畑",
    "nameEn": "Nakahata",
    "lat": 34.5826342,
    "lng": 133.1932492,
    "prefecture": "広島県",
    "lines": [
      "JR/私鉄"
    ],
    "operator": ""
  },
  {
    "id": 4198,
    "name": "中神",
    "nameEn": "Nakagami",
    "lat": 35.7090262,
    "lng": 139.3757902,
    "prefecture": "東京都",
    "lines": [
      "JR/私鉄"
    ],
    "operator": ""
  },
  {
    "id": 1463,
    "name": "中福良",
    "nameEn": "Nakafukura",
    "lat": 31.814166,
    "lng": 130.732755,
    "prefecture": "九州地方",
    "lines": [
      "JR九州",
      "JR肥薩線"
    ],
    "operator": "九州旅客鉄道"
  },
  {
    "id": 5032,
    "name": "中舟生",
    "nameEn": "Naka-Funyu",
    "lat": 36.6456412,
    "lng": 140.3923216,
    "prefecture": "関東地方",
    "lines": [
      "JR/私鉄"
    ],
    "operator": ""
  },
  {
    "id": 4591,
    "name": "中菅谷",
    "nameEn": "Naka-Sugaya",
    "lat": 36.4458648,
    "lng": 140.4926363,
    "prefecture": "関東地方",
    "lines": [
      "JR/私鉄"
    ],
    "operator": ""
  },
  {
    "id": 7613,
    "name": "中菰野",
    "nameEn": "Naka-Komono",
    "lat": 35.0122695,
    "lng": 136.5043209,
    "prefecture": "中部地方",
    "lines": [
      "JR/私鉄"
    ],
    "operator": ""
  },
  {
    "id": 8158,
    "name": "中萩",
    "nameEn": "Nakahagi",
    "lat": 33.926164,
    "lng": 133.2533917,
    "prefecture": "中国・四国地方",
    "lines": [
      "JR四国"
    ],
    "operator": "四国旅客鉄道"
  },
  {
    "id": 5060,
    "name": "中萱",
    "nameEn": "Nakagaya",
    "lat": 36.2733565,
    "lng": 137.9032901,
    "prefecture": "関東地方",
    "lines": [
      "JR/私鉄"
    ],
    "operator": ""
  },
  {
    "id": 772,
    "name": "中角",
    "nameEn": "Nakatsuno",
    "lat": 36.1013999,
    "lng": 136.2045105,
    "prefecture": "関東地方",
    "lines": [
      "JR/私鉄"
    ],
    "operator": ""
  },
  {
    "id": 5020,
    "name": "中豊",
    "nameEn": "Nakatoyo",
    "lat": 37.0223633,
    "lng": 140.3933899,
    "prefecture": "関東地方",
    "lines": [
      "JR/私鉄"
    ],
    "operator": ""
  },
  {
    "id": 1045,
    "name": "中軽井沢",
    "nameEn": "Naka-Karuizawa",
    "lat": 36.3475773,
    "lng": 138.5925266,
    "prefecture": "関東地方",
    "lines": [
      "JR/私鉄"
    ],
    "operator": ""
  },
  {
    "id": 889,
    "name": "中込",
    "nameEn": "Nakagomi",
    "lat": 36.2305821,
    "lng": 138.4792663,
    "prefecture": "関東地方",
    "lines": [
      "JR/私鉄"
    ],
    "operator": ""
  },
  {
    "id": 5080,
    "name": "中郡",
    "nameEn": "Chugun",
    "lat": 37.9690403,
    "lng": 140.0671656,
    "prefecture": "関東地方",
    "lines": [
      "JR/私鉄"
    ],
    "operator": ""
  },
  {
    "id": 2929,
    "name": "中部国際空港",
    "nameEn": "Central Japan International Airport",
    "lat": 34.8599396,
    "lng": 136.8161753,
    "prefecture": "愛知県",
    "lines": [
      "Nagoya Railroad"
    ],
    "operator": "Nagoya Railroad"
  },
  {
    "id": 947,
    "name": "中部天竜",
    "nameEn": "Chubutenryu",
    "lat": 35.0850892,
    "lng": 137.8028089,
    "prefecture": "中部地方",
    "lines": [
      "JR/私鉄"
    ],
    "operator": ""
  },
  {
    "id": 2157,
    "name": "中里",
    "nameEn": "Nakazato",
    "lat": 33.2082665,
    "lng": 129.6879167,
    "prefecture": "中国・四国地方",
    "lines": [
      "JR/私鉄"
    ],
    "operator": ""
  },
  {
    "id": 2233,
    "name": "中野",
    "nameEn": "Nakano",
    "lat": 36.3606596,
    "lng": 138.1933468,
    "prefecture": "関東地方",
    "lines": [
      "JR/私鉄"
    ],
    "operator": ""
  },
  {
    "id": 6166,
    "name": "中間",
    "nameEn": "Nakama",
    "lat": 33.8278908,
    "lng": 130.7094017,
    "prefecture": "福岡県",
    "lines": [
      "JR九州"
    ],
    "operator": "九州旅客鉄道"
  },
  {
    "id": 8568,
    "name": "中飯降",
    "nameEn": "Nakaiburi",
    "lat": 34.3042678,
    "lng": 135.532081,
    "prefecture": "関西地方",
    "lines": [
      "JR/私鉄"
    ],
    "operator": ""
  },
  {
    "id": 6376,
    "name": "串",
    "nameEn": "Kushi",
    "lat": 33.6472702,
    "lng": 132.5634035,
    "prefecture": "中国・四国地方",
    "lines": [
      "JR四国"
    ],
    "operator": "四国旅客鉄道"
  },
  {
    "id": 3057,
    "name": "串木野",
    "nameEn": "Kushikino",
    "lat": 31.7212541,
    "lng": 130.2744046,
    "prefecture": "九州地方",
    "lines": [
      "JR九州",
      "JR鹿児島本線"
    ],
    "operator": "九州旅客鉄道"
  },
  {
    "id": 4914,
    "name": "串本",
    "nameEn": "Kushimoto",
    "lat": 33.4755656,
    "lng": 135.7816979,
    "prefecture": "中国・四国地方",
    "lines": [
      "JR/私鉄"
    ],
    "operator": ""
  },
  {
    "id": 1272,
    "name": "串間",
    "nameEn": "Kushima",
    "lat": 31.4628354,
    "lng": 131.2305132,
    "prefecture": "九州地方",
    "lines": [
      "JR九州",
      "JR日南線"
    ],
    "operator": "九州旅客鉄道"
  },
  {
    "id": 6248,
    "name": "丸亀",
    "nameEn": "Marugame",
    "lat": 34.2920372,
    "lng": 133.792953,
    "prefecture": "関西地方",
    "lines": [
      "JR四国"
    ],
    "operator": "四国旅客鉄道"
  },
  {
    "id": 8589,
    "name": "丸尾",
    "nameEn": "Maruo",
    "lat": 33.9701402,
    "lng": 131.3368119,
    "prefecture": "中国・四国地方",
    "lines": [
      "JR西日本"
    ],
    "operator": "西日本旅客鉄道"
  },
  {
    "id": 2574,
    "name": "丸山",
    "nameEn": "Maruyama",
    "lat": 34.7046527,
    "lng": 136.1574129,
    "prefecture": "関西地方",
    "lines": [
      "JR/私鉄"
    ],
    "operator": ""
  },
  {
    "id": 4404,
    "name": "丸山",
    "nameEn": "Maruyama",
    "lat": 34.6857985,
    "lng": 135.1441559,
    "prefecture": "兵庫県",
    "lines": [
      "JR/私鉄"
    ],
    "operator": ""
  },
  {
    "id": 2361,
    "name": "丸山下",
    "nameEn": "Maruyama-shita",
    "lat": 36.4168086,
    "lng": 139.3216927,
    "prefecture": "関東地方",
    "lines": [
      "JR/私鉄"
    ],
    "operator": ""
  },
  {
    "id": 2963,
    "name": "丸山渡",
    "nameEn": "",
    "lat": 35.7250452,
    "lng": 137.6282268,
    "prefecture": "中部地方",
    "lines": [
      "JR/私鉄"
    ],
    "operator": ""
  },
  {
    "id": 5429,
    "name": "丸岡",
    "nameEn": "Maruoka",
    "lat": 36.1627729,
    "lng": 136.2335466,
    "prefecture": "関東地方",
    "lines": [
      "JR/私鉄"
    ],
    "operator": ""
  },
  {
    "id": 138,
    "name": "丸森",
    "nameEn": "Marumori",
    "lat": 37.9305042,
    "lng": 140.7615591,
    "prefecture": "宮城県",
    "lines": [
      "JR/私鉄"
    ],
    "operator": ""
  },
  {
    "id": 7373,
    "name": "丸渕",
    "nameEn": "Marubuchi",
    "lat": 35.2224905,
    "lng": 136.7289492,
    "prefecture": "愛知県",
    "lines": [
      "名古屋鉄道"
    ],
    "operator": "名古屋鉄道"
  },
  {
    "id": 7814,
    "name": "丹後由良",
    "nameEn": "Tango-Yura",
    "lat": 35.5158765,
    "lng": 135.2794119,
    "prefecture": "兵庫県",
    "lines": [
      "JR/私鉄"
    ],
    "operator": ""
  },
  {
    "id": 7868,
    "name": "丹比",
    "nameEn": "Tampi",
    "lat": 35.3608285,
    "lng": 134.3562145,
    "prefecture": "兵庫県",
    "lines": [
      "JR/私鉄"
    ],
    "operator": ""
  },
  {
    "id": 1837,
    "name": "丹治部",
    "nameEn": "Tajibe",
    "lat": 35.0461768,
    "lng": 133.5535158,
    "prefecture": "中部地方",
    "lines": [
      "JR西日本"
    ],
    "operator": "西日本旅客鉄道"
  },
  {
    "id": 6975,
    "name": "丹波大山",
    "nameEn": "Tamba-Ōyama",
    "lat": 35.0721357,
    "lng": 135.1688493,
    "prefecture": "兵庫県",
    "lines": [
      "JR/私鉄"
    ],
    "operator": ""
  },
  {
    "id": 6971,
    "name": "丹波竹田",
    "nameEn": "Tamba-Takeda",
    "lat": 35.2436682,
    "lng": 135.1340224,
    "prefecture": "兵庫県",
    "lines": [
      "JR西日本"
    ],
    "operator": "西日本旅客鉄道"
  },
  {
    "id": 4374,
    "name": "丹生",
    "nameEn": "Nibu",
    "lat": 34.2545846,
    "lng": 134.3016362,
    "prefecture": "兵庫県",
    "lines": [
      "JR四国"
    ],
    "operator": "四国旅客鉄道"
  },
  {
    "id": 7647,
    "name": "丹生川",
    "nameEn": "Nyūgawa",
    "lat": 35.1226164,
    "lng": 136.5196665,
    "prefecture": "中部地方",
    "lines": [
      "三岐鉄道",
      "三岐鉄道三岐線"
    ],
    "operator": "三岐鉄道"
  },
  {
    "id": 1559,
    "name": "乃木",
    "nameEn": "Nogi",
    "lat": 35.4459064,
    "lng": 133.0485881,
    "prefecture": "中部地方",
    "lines": [
      "JR/私鉄"
    ],
    "operator": ""
  },
  {
    "id": 7335,
    "name": "久々原",
    "nameEn": "Kuguhara",
    "lat": 34.5921741,
    "lng": 133.827998,
    "prefecture": "関西地方",
    "lines": [
      "JR/私鉄"
    ],
    "operator": ""
  },
  {
    "id": 1174,
    "name": "久々野",
    "nameEn": "Kuguno",
    "lat": 36.0517102,
    "lng": 137.2774545,
    "prefecture": "関東地方",
    "lines": [
      "JR/私鉄"
    ],
    "operator": ""
  },
  {
    "id": 4678,
    "name": "久ノ浜",
    "nameEn": "Hisanohama",
    "lat": 37.1422967,
    "lng": 140.9959388,
    "prefecture": "関東地方",
    "lines": [
      "JR東日本"
    ],
    "operator": "東日本旅客鉄道"
  },
  {
    "id": 1884,
    "name": "久下村",
    "nameEn": "Kugemura",
    "lat": 35.0755103,
    "lng": 135.0303859,
    "prefecture": "兵庫県",
    "lines": [
      "JR/私鉄"
    ],
    "operator": ""
  },
  {
    "id": 2868,
    "name": "久下田",
    "nameEn": "Kugeta",
    "lat": 36.375811,
    "lng": 139.9715254,
    "prefecture": "関東地方",
    "lines": [
      "真岡鐵道"
    ],
    "operator": "真岡鐵道"
  },
  {
    "id": 1832,
    "name": "久世",
    "nameEn": "Kuse",
    "lat": 35.0809912,
    "lng": 133.7452808,
    "prefecture": "中部地方",
    "lines": [
      "JR/私鉄"
    ],
    "operator": ""
  },
  {
    "id": 1580,
    "name": "久代",
    "nameEn": "Kushiro",
    "lat": 34.9496285,
    "lng": 132.1392853,
    "prefecture": "広島県",
    "lines": [
      "JR/私鉄"
    ],
    "operator": ""
  },
  {
    "id": 4169,
    "name": "久保田",
    "nameEn": "Kubota",
    "lat": 39.2959524,
    "lng": 140.1110419,
    "prefecture": "関東地方",
    "lines": [
      "JR/私鉄"
    ],
    "operator": ""
  },
  {
    "id": 6678,
    "name": "久保田",
    "nameEn": "Kubota",
    "lat": 33.2556027,
    "lng": 130.2288699,
    "prefecture": "福岡県",
    "lines": [
      "JR九州"
    ],
    "operator": "九州旅客鉄道"
  },
  {
    "id": 2150,
    "name": "久原",
    "nameEn": "Kubara",
    "lat": 33.3148676,
    "lng": 129.81155,
    "prefecture": "中国・四国地方",
    "lines": [
      "JR/私鉄"
    ],
    "operator": ""
  },
  {
    "id": 6936,
    "name": "久居",
    "nameEn": "Hisai",
    "lat": 34.6758202,
    "lng": 136.4778911,
    "prefecture": "関西地方",
    "lines": [
      "JR/私鉄"
    ],
    "operator": ""
  },
  {
    "id": 2472,
    "name": "久崎",
    "nameEn": "Kuzaki",
    "lat": 34.9609827,
    "lng": 134.3442701,
    "prefecture": "兵庫県",
    "lines": [
      "JR/私鉄"
    ],
    "operator": ""
  },
  {
    "id": 1572,
    "name": "久手",
    "nameEn": "Kute",
    "lat": 35.2294547,
    "lng": 132.5082435,
    "prefecture": "中部地方",
    "lines": [
      "JR/私鉄"
    ],
    "operator": ""
  },
  {
    "id": 2392,
    "name": "久津川",
    "nameEn": "Kutsukawa",
    "lat": 34.8648954,
    "lng": 135.7747985,
    "prefecture": "京都府",
    "lines": [
      "JR/私鉄"
    ],
    "operator": ""
  },
  {
    "id": 209,
    "name": "久田野",
    "nameEn": "Kutano",
    "lat": 37.1373864,
    "lng": 140.2597808,
    "prefecture": "関東地方",
    "lines": [
      "JR/私鉄"
    ],
    "operator": ""
  },
  {
    "id": 1429,
    "name": "久留米",
    "nameEn": "Kurume",
    "lat": 33.3206417,
    "lng": 130.5014036,
    "prefecture": "福岡県",
    "lines": [
      "JR九州"
    ],
    "operator": "九州旅客鉄道"
  },
  {
    "id": 7199,
    "name": "久留米大学前",
    "nameEn": "Kurume-Daigakumae",
    "lat": 33.3109866,
    "lng": 130.5486287,
    "prefecture": "福岡県",
    "lines": [
      "JR九州",
      "JR久大線"
    ],
    "operator": "九州旅客鉄道"
  },
  {
    "id": 7207,
    "name": "久留米高校前",
    "nameEn": "Kurume-Kōkōmae",
    "lat": 33.2984645,
    "lng": 130.5164161,
    "prefecture": "福岡県",
    "lines": [
      "JR九州",
      "JR久大線"
    ],
    "operator": "九州旅客鉄道"
  },
  {
    "id": 3607,
    "name": "久米",
    "nameEn": "Kume",
    "lat": 33.8160825,
    "lng": 132.8045267,
    "prefecture": "中国・四国地方",
    "lines": [
      "伊予鉄道"
    ],
    "operator": "伊予鉄道"
  },
  {
    "id": 6902,
    "name": "久米川",
    "nameEn": "Kumegawa",
    "lat": 35.7496668,
    "lng": 139.4725702,
    "prefecture": "東京都",
    "lines": [
      "西武鉄道"
    ],
    "operator": "西武鉄道"
  },